{"type":"FeatureCollection","features":[{"geometry": {"type":"Point","coordinates":[-73.996661, 40.718682]},"type":"Feature","properties": {"phone":"(212) 219-0750","address":"138 MOTT ST., NEW YORK,NY 10013","id":"18497","zip":"10013","name":"CENTRAL PHARMACY CORP."}}, {"geometry": {"type":"Point","coordinates":[-73.963386, 40.798251]},"type":"Feature","properties": {"phone":"(212) 222-6388","address":"909 COLUMBUS AVENUE, NEW YORK,NY 10025","id":"26608","zip":"10025","name":"PD ENTERPRISES INC."}}, {"geometry": {"type":"Point","coordinates":[-73.947396, 40.81664]},"type":"Feature","properties": {"phone":"(212) 491-6015","address":"300 WEST 135TH ST., NEW YORK,NY 10030","id":"27495","zip":"10030","name":"DUANE READE"}}, {"geometry": {"type":"Point","coordinates":[-73.973204, 40.758652]},"type":"Feature","properties": {"phone":"(212) 888-2323","address":"49 E. 52ND ST., NEW YORK,NY 10022","id":"19499","zip":"10022","name":"DUANE READE"}}, {"geometry": {"type":"Point","coordinates":[-73.99988, 40.743399]},"type":"Feature","properties": {"phone":"(212) 929-6915","address":"195 8TH AVE., NEW YORK,NY 10011","id":"26942","zip":"10011","name":"GENOVESE DRUG STORES, INC."}}, {"geometry": {"type":"Point","coordinates":[-73.997967, 40.745742]},"type":"Feature","properties": {"phone":"(212) 255-2592","address":"272 8TH AVE., NEW YORK,NY 10011","id":"22461","zip":"10011","name":"CVS ALBANY, L.L.C."}}, {"geometry": {"type":"Point","coordinates":[-73.985101, 40.718816]},"type":"Feature","properties": {"phone":"(212) 386-9886","address":"78 CLINTON STREET, NEW YORK,NY 10002","id":"27286","zip":"10002","name":"MEDIEXPRESS PHARMACY CORP."}}, {"geometry": {"type":"Point","coordinates":[-73.956259, 40.779605]},"type":"Feature","properties": {"phone":"(212) 427-3868","address":"122 EAST 86TH ST, NEW YORK,NY 10028","id":"28854","zip":"10028","name":"WALGREEN EAST CO., INC"}}, {"geometry": {"type":"Point","coordinates":[-73.967457, 40.792963]},"type":"Feature","properties": {"phone":"(212) 316-0436","address":"741 COLUMBUS AVE., NEW YORK,NY 10025","id":"22660","zip":"10025","name":"RITE AID OF NEW YORK, INC."}}, {"geometry": {"type":"Point","coordinates":[-73.968464, 40.799975]},"type":"Feature","properties": {"phone":"(212) 866-6700","address":"2721 BROADWAY, NEW YORK,NY 10025","id":"19014","zip":"10025","name":"27 BROADWAY DRUGS INC."}}, {"geometry": {"type":"Point","coordinates":[-73.937589, 40.804652]},"type":"Feature","properties": {"phone":"(212) 360-6586","address":"1231 MADISON AVE., NEW YORK,NY 10128","id":"23692","zip":"10128","name":"DUANE READE"}}, {"geometry": {"type":"Point","coordinates":[-74.009341, 40.716082]},"type":"Feature","properties": {"phone":"(212) 791-3100","address":"5 HUDSON ST., NEW YORK,NY 10013","id":"23690","zip":"10013","name":"KINGS TRIBECA PHARMACY, INC."}}, {"geometry": {"type":"Point","coordinates":[-73.982824, 40.778791]},"type":"Feature","properties": {"phone":"(212) 875-1718","address":"216 WEST 72ND STREET, NEW YORK,NY 10023","id":"21409","zip":"10023","name":"ABA NOUB, LTD."}}, {"geometry": {"type":"Point","coordinates":[-73.959592, 40.773802]},"type":"Feature","properties": {"phone":"(212) 879-0910","address":"1103 LEXINGTON AVE., NEW YORK,NY 10021","id":"23694","zip":"10021","name":"LENOX HILL PHARMACY INC."}}, {"geometry": {"type":"Point","coordinates":[-73.92496, 40.863825]},"type":"Feature","properties": {"phone":"(212) 567-2753","address":"101 SHERMAN AVE., NEW YORK,NY 10034","id":"22261","zip":"10034","name":"SMS PHARMACY CORP."}}, {"geometry": {"type":"Point","coordinates":[-73.991211, 40.724001]},"type":"Feature","properties": {"phone":"(212) 260-3131","address":"7 SECOND AVE, NEW YORK,NY 10003","id":"28107","zip":"10003","name":"AVALON CHEMISTS INC."}}, {"geometry": {"type":"Point","coordinates":[-73.994662, 40.728447]},"type":"Feature","properties": {"phone":"(212) 473-1027","address":"4 WEST 4TH ST., NEW YORK,NY 10012","id":"24717","zip":"10012","name":"DUANE READE"}}, {"geometry": {"type":"Point","coordinates":[-73.949179, 40.79409]},"type":"Feature","properties": {"phone":"(212) 427-4382","address":"1590 MADISON AVENUE, NEW YORK,NY 10029","id":"18424","zip":"10029","name":"BLISS PHARMACY INC."}}, {"geometry": {"type":"Point","coordinates":[-73.997916, 40.74605]},"type":"Feature","properties": {"phone":"(212) 727-3854","address":"282 8TH AVENUE, NEW YORK,NY 10001","id":"22466","zip":"10001","name":"RITE AID OF NEW YORK, INC."}}, {"geometry": {"type":"Point","coordinates":[-73.949428, 40.776816]},"type":"Feature","properties": {"phone":"(917) 492-8801","address":"401 EAST 86TH ST., NEW YORK,NY 10028","id":"24652","zip":"10028","name":"DUANE READE"}}, {"geometry": {"type":"Point","coordinates":[-73.94386, 40.801122]},"type":"Feature","properties": {"phone":"(212) 348-3341","address":"1793A MADISON AVE., NEW YORK,NY 10035","id":"29922","zip":"10035","name":"RITE HOPE PHARMACY INC."}}, {"geometry": {"type":"Point","coordinates":[-73.982104, 40.74746]},"type":"Feature","properties": {"phone":"(212) 683-3838","address":"53 E. 34TH ST., NEW YORK,NY 10016","id":"19404","zip":"10016","name":"10 PARK PHARMACY, INC."}}, {"geometry": {"type":"Point","coordinates":[-73.97248, 40.793528]},"type":"Feature","properties": {"phone":"(212) 663-1580","address":"2522 BROADWAY, NEW YORK,NY 10025","id":"22184","zip":"10025","name":"DUANE READE"}}, {"geometry": {"type":"Point","coordinates":[-74.007598, 40.704886]},"type":"Feature","properties": {"phone":"(212) 363-5830","address":"95 WALL ST., NEW YORK,NY 10005","id":"19376","zip":"10005","name":"DUANE READE"}}, {"geometry": {"type":"Point","coordinates":[-73.999818, 40.741047]},"type":"Feature","properties": {"phone":"(212) 604-1970","address":"230 WEST 17TH ST 8TH FLR, NEW YORK,NY 10011","id":"30198","zip":"10011","name":"ST. LUKE'S ROOSEVELT HOSPITAL CENTER"}}, {"geometry": {"type":"Point","coordinates":[-73.988935, 40.727437]},"type":"Feature","properties": {"phone":"(212) 473-1587","address":"101 SECOND AVE., NEW YORK,NY 10003","id":"4177","zip":"10003","name":"SECOND AVE. CHEMISTS INC."}}, {"geometry": {"type":"Point","coordinates":[-73.962955, 40.766904]},"type":"Feature","properties": {"phone":"(212) 861-0291","address":"1160 THIRD AVENUE, NEW YORK,NY 10065","id":"28538","zip":"10065","name":"WALGREEN EASTERN CO., INC."}}, {"geometry": {"type":"Point","coordinates":[-73.954836, 40.766265]},"type":"Feature","properties": {"phone":"(212) 737-6240","address":"1327 YORK AVENUE, NEW YORK,NY 10021","id":"26935","zip":"10021","name":"DUANE READE"}}, {"geometry": {"type":"Point","coordinates":[-73.941136, 40.805341]},"type":"Feature","properties": {"phone":"(212) 534-2849","address":"27-29 EAST 124TH ST., NEW YORK,NY 10035","id":"25342","zip":"10035","name":"SB PHARMACY, INC."}}, {"geometry": {"type":"Point","coordinates":[-73.983405, 40.739107]},"type":"Feature","properties": {"phone":"(212) 477-1372","address":"161 EAST 23RD ST., NEW YORK,NY 10010","id":"23517","zip":"10010","name":"DUANE READE"}}, {"geometry": {"type":"Point","coordinates":[-74.000069, 40.722252]},"type":"Feature","properties": {"phone":"(212) 334-0431","address":"495 BROADWAY, NEW YORK,NY 10012","id":"26931","zip":"10012","name":"GENOVESE DRUG STORES, INC."}}, {"geometry": {"type":"Point","coordinates":[-73.919686, 40.865068]},"type":"Feature","properties": {"phone":"(212) 567-1350","address":"520 WEST 207TH STREET, NEW YORK,NY 10034","id":"24305","zip":"10034","name":"JANIK PHARMACY CORP."}}, {"geometry": {"type":"Point","coordinates":[-73.987166, 40.751136]},"type":"Feature","properties": {"phone":"(212) 695-6346","address":"1350 BROADWAY, NEW YORK,NY 10018","id":"29754","zip":"10018","name":"DUANE READE"}}, {"geometry": {"type":"Point","coordinates":[-73.977332, 40.745372]},"type":"Feature","properties": {"phone":"(212) 532-2354","address":"222 EAST 34TH ST, NEW YORK,NY 10016","id":"29751","zip":"10016","name":"CVS ALBANY, L.L.C"}}, {"geometry": {"type":"Point","coordinates":[-74.006261, 40.710921]},"type":"Feature","properties": {"phone":"(212) 766-1942","address":"19 BEEKMAN STREET, NEW YORK,NY 10038","id":"29459","zip":"10038","name":"BEEKMAN PHARMACY, INC."}}, {"geometry": {"type":"Point","coordinates":[-73.959282, 40.76328]},"type":"Feature","properties": {"phone":"(212) 734-6998","address":"1200 FIRST AVENUE, NEW YORK,NY 10065","id":"31131","zip":"10065","name":"VBVS PHARMACY INC."}}, {"geometry": {"type":"Point","coordinates":[-73.987141, 40.71596]},"type":"Feature","properties": {"phone":"(212) 475-5760","address":"407 GRAND ST., NEW YORK,NY 10002","id":"25667","zip":"10002","name":"KARNABY CHEMISTS, INC."}}, {"geometry": {"type":"Point","coordinates":[-73.997997, 40.71699]},"type":"Feature","properties": {"phone":"(212) 625-8339","address":"185 CANAL ST., NEW YORK,NY 10013","id":"30450","zip":"10013","name":"ERXCITY CORP"}}, {"geometry": {"type":"Point","coordinates":[-73.992444, 40.714617]},"type":"Feature","properties": {"phone":"(212) 431-6688","address":"98 EAST BROADWAY 1F, NEW YORK,NY 10002","id":"29285","zip":"10002","name":"FULTON FAMILY PHARMACY INC"}}, {"geometry": {"type":"Point","coordinates":[-73.993668, 40.761872]},"type":"Feature","properties": {"phone":"(212) 956-1100","address":"646 TENTH AVENUE, NEW YORK,NY 10036","id":"28807","zip":"10036","name":"THRIFTWAY 10TH AVE. DRUG CORP."}}, {"geometry": {"type":"Point","coordinates":[-74.004604, 40.733848]},"type":"Feature","properties": {"phone":"(212) 807-7566","address":"346 BLEECKER ST., NEW YORK,NY 10014","id":"17656","zip":"10014","name":"VILLAGE APOTHECARY, INC."}}, {"geometry": {"type":"Point","coordinates":[-73.971632, 40.792645]},"type":"Feature","properties": {"phone":"(212) 865-9700","address":"698 AMSTERDAM AVE., NEW YORK,NY 10025","id":"18173","zip":"10025","name":"NEW AMSTERDAM DRUG MART, INC."}}, {"geometry": {"type":"Point","coordinates":[-73.953616, 40.811371]},"type":"Feature","properties": {"phone":"(212) 222-1300","address":"379 WEST 125TH STREET, NEW YORK,NY 10027","id":"25522","zip":"10027","name":"FAMILY PHARMACY &amp; SURGICAL INC."}}, {"geometry": {"type":"Point","coordinates":[-73.990162, 40.737817]},"type":"Feature","properties": {"phone":"(917) 534-1351","address":"873 BROADWAY, NEW YORK,NY 10012","id":"25288","zip":"10012","name":"DUANE READE"}}, {"geometry": {"type":"Point","coordinates":[-74.006261, 40.710921]},"type":"Feature","properties": {"phone":"(212) 766-1942","address":"19 BEEKMAN ST., NEW YORK,NY 10038","id":"19846","zip":"10038","name":"THRIFTWAY BEEKMAN PHARMACY, INC."}}, {"geometry": {"type":"Point","coordinates":[-74.000779, 40.717295]},"type":"Feature","properties": {"phone":"(212) 625-8878","address":"139 CENTRE ST., APT 201, NEW YORK,NY 10013","id":"30774","zip":"10013","name":"FOOKANG PHARMACY, INC."}}, {"geometry": {"type":"Point","coordinates":[-73.984584, 40.737342]},"type":"Feature","properties": {"phone":"(212) 475-1144","address":"250 THIRD AVE., NEW YORK,NY 10010","id":"6599","zip":"10010","name":"B. EIDINGER AND SON DRUG CORPORATION"}}, {"geometry": {"type":"Point","coordinates":[-73.963118, 40.75794]},"type":"Feature","properties": {"phone":"(212) 755-4244","address":"1032 1ST AVE., NEW YORK,NY 10022","id":"30995","zip":"10022","name":"G.A.C. PHARMACY CORP."}}, {"geometry": {"type":"Point","coordinates":[-73.978817, 40.777124]},"type":"Feature","properties": {"phone":"(212) 362-9170","address":"255 COLUMBUS AVE., NEW YORK,NY 10023","id":"15922","zip":"10023","name":"255 COLUMBUS AVENUE CORPORATION"}}, {"geometry": {"type":"Point","coordinates":[-73.937934, 40.818296]},"type":"Feature","properties": {"phone":"(212) 281-7276","address":"565 LENOX AVE., NEW YORK,NY 10037","id":"25993","zip":"10037","name":"HARLEM DRUGS INC."}}, {"geometry": {"type":"Point","coordinates":[-73.980202, 40.746444]},"type":"Feature","properties": {"phone":"(212) 481-6600","address":"120 E. 34TH ST., NEW YORK,NY 10016","id":"25501","zip":"10016","name":"HEALTHSOURCE PHARMACY II, INC."}}, {"geometry": {"type":"Point","coordinates":[-73.980361, 40.717431]},"type":"Feature","properties": {"phone":"(212) 533-8120","address":"55 COLUMBIA ST., NEW YORK,NY 10002","id":"16250","zip":"10002","name":"CLEARFIELD COLUMBIA ST. DRUG CORPORATION"}}, {"geometry": {"type":"Point","coordinates":[-73.991132, 40.720707]},"type":"Feature","properties": {"phone":"(212) 477-3100","address":"45 RIVINGTON ST., NEW YORK,NY 10002","id":"22229","zip":"10002","name":"RIVINGTON HOUSE HEALTH CARE FACILITY"}}, {"geometry": {"type":"Point","coordinates":[-73.98056, 40.759676]},"type":"Feature","properties": {"phone":"(212) 391-1105","address":"1251 AVE. OF THE AMERICAS, NEW YORK,NY 10020","id":"25114","zip":"10020","name":"DUANE READE"}}, {"geometry": {"type":"Point","coordinates":[-73.975341, 40.790035]},"type":"Feature","properties": {"phone":"(212) 874-0238","address":"2409 BROADWAY, NEW YORK,NY 10024","id":"26680","zip":"10024","name":"DUANE READE"}}, {"geometry": {"type":"Point","coordinates":[-73.985144, 40.768306]},"type":"Feature","properties": {"phone":"(212) 445-0932","address":"892 9TH AVE., NEW YORK,NY 10019","id":"24572","zip":"10019","name":"PROCARE PHARMACY, L.L.C."}}, {"geometry": {"type":"Point","coordinates":[-73.985546, 40.768187]},"type":"Feature","properties": {"phone":"(212) 245-8469","address":"883 NINTH AVE., NEW YORK,NY 10019","id":"3384","zip":"10019","name":"ARROW PHARMACY INC."}}, {"geometry": {"type":"Point","coordinates":[-73.922938, 40.862357]},"type":"Feature","properties": {"phone":"(212) 942-0202","address":"220 NAGLE AVENUE, NEW YORK,NY 10034","id":"31674","zip":"10034","name":"S H DRUGS INC."}}, {"geometry": {"type":"Point","coordinates":[-73.947541, 40.779937]},"type":"Feature","properties": {"phone":"(646) 672-1760","address":"1749-53 FIRST AVENUE, NEW YORK,NY 10128","id":"26097","zip":"10128","name":"DUANE READE"}}, {"geometry": {"type":"Point","coordinates":[-73.960121, 40.776362]},"type":"Feature","properties": {"phone":"(212) 289-5866","address":"1080 PARK AVE., NEW YORK,NY 10028","id":"17867","zip":"10028","name":"PARK AVENUE CHEMISTS LTD."}}, {"geometry": {"type":"Point","coordinates":[-73.937943, 40.818283]},"type":"Feature","properties": {"phone":"(212) 283-2136","address":"543 LENOX AVENUE, NEW YORK,NY 10037","id":"27539","zip":"10037","name":"PALACE PHARMACY INC"}}, {"geometry": {"type":"Point","coordinates":[-73.923485, 40.866921]},"type":"Feature","properties": {"phone":"(212) 942-8785","address":"4873 BROADWAY, NEW YORK,NY 10034","id":"30356","zip":"10034","name":"PERSONAL PHARMACY INC."}}, {"geometry": {"type":"Point","coordinates":[-73.961195, 40.801538]},"type":"Feature","properties": {"phone":"(212) 662-6630","address":"1009 COLUMBUS AVE., NEW YORK,NY 10025","id":"19570","zip":"10025","name":"J.J. COLUMBUS DRUG CO. INC."}}, {"geometry": {"type":"Point","coordinates":[-73.939155, 40.799098]},"type":"Feature","properties": {"phone":"(212) 534-9781","address":"2155 THIRD AVE., NEW YORK,NY 10035","id":"23663","zip":"10035","name":"RITE AID OF NEW YORK, INC."}}, {"geometry": {"type":"Point","coordinates":[-73.967256, 40.756347]},"type":"Feature","properties": {"phone":"(212) 752-1909","address":"1000 SECOND AVE., NEW YORK,NY 10022","id":"28397","zip":"10022","name":"WALGREEN EASTERN CO., INC."}}, {"geometry": {"type":"Point","coordinates":[-73.919379, 40.863834]},"type":"Feature","properties": {"phone":"(212) 304-4541","address":"3849 10TH AVE., NEW YORK,NY 10034","id":"31005","zip":"10034","name":"ST. THERESA PHARMACY CORP"}}, {"geometry": {"type":"Point","coordinates":[-73.937101, 40.842604]},"type":"Feature","properties": {"phone":"(212) 795-4080","address":"120 AUDUBON AVENUE, NEW YORK,NY 10032","id":"28398","zip":"10032","name":"HEIGHTS COMMUNITY PHARMACY, INC.,THE"}}, {"geometry": {"type":"Point","coordinates":[-73.998274, 40.716494]},"type":"Feature","properties": {"phone":"(212) 285-0977","address":"77 MOTT ST., NEW YORK,NY 10013","id":"31003","zip":"10013","name":"HEALTHY LIFE PHARMACY INC."}}, {"geometry": {"type":"Point","coordinates":[-73.981576, 40.71427]},"type":"Feature","properties": {"phone":"(212) 388-0888","address":"527 GRAND STREET, NEW YORK,NY 10002","id":"27713","zip":"10002","name":"PEOPLE CHOICE PHARMACY INC"}}, {"geometry": {"type":"Point","coordinates":[-73.926864, 40.86455]},"type":"Feature","properties": {"phone":"(212) 567-1282","address":"188-192 DYCKMAN STREET, NEW YORK,NY 10040","id":"24880","zip":"10040","name":"DUANE READE"}}, {"geometry": {"type":"Point","coordinates":[-73.937812, 40.804063]},"type":"Feature","properties": {"phone":"(212) 426-5555","address":"2056 LEXINGTON AVENUE, NEW YORK,NY 10035","id":"30023","zip":"10035","name":"LEXINGTON AVENUE PHARMACY, INC."}}, {"geometry": {"type":"Point","coordinates":[-73.992324, 40.745619]},"type":"Feature","properties": {"phone":"(212) 239-0167","address":"333 7TH AVE., NEW YORK,NY 10001","id":"21615","zip":"10001","name":"DUANE READE"}}, {"geometry": {"type":"Point","coordinates":[-73.951876, 40.799188]},"type":"Feature","properties": {"phone":"(212) 678-9722","address":"27 LENOX AVE., NEW YORK,NY 10026","id":"23095","zip":"10026","name":"LENOX PHARMACY INC."}}, {"geometry": {"type":"Point","coordinates":[-73.991364, 40.730844]},"type":"Feature","properties": {"phone":"(212) 253-9661","address":"770 BROADWAY, NEW YORK,NY 10003","id":"23094","zip":"10003","name":"KMART CORPORATION"}}, {"geometry": {"type":"Point","coordinates":[-73.992436, 40.735383]},"type":"Feature","properties": {"phone":"(212) 337-7650","address":"BASEMENT, 24 EAST 14TH ST., NEW YORK,NY 10003","id":"26614","zip":"10003","name":"DUANE READE"}}, {"geometry": {"type":"Point","coordinates":[-73.996464, 40.742012]},"type":"Feature","properties": {"phone":"(212) 255-9900","address":"165 WEST 20TH ST., NEW YORK,NY 10011","id":"31488","zip":"10011","name":"CHELSEA PHARMACY INC"}}, {"geometry": {"type":"Point","coordinates":[-73.950672, 40.785966]},"type":"Feature","properties": {"phone":"(212) 289-3665","address":"1491 LEXINGTON AVENUE, NEW YORK,NY 10029","id":"27656","zip":"10029","name":"1491 LEX PHARMACY INC."}}, {"geometry": {"type":"Point","coordinates":[-74.001001, 40.720928]},"type":"Feature","properties": {"phone":"(212) 291-2658","address":"459 BROADWAY, NEW YORK,NY 10013","id":"29144","zip":"10013","name":"DUANE READE"}}, {"geometry": {"type":"Point","coordinates":[-73.97936, 40.736103]},"type":"Feature","properties": {"phone":"(212) 777-6864","address":"371 1ST. AVENUE, NEW YORK,NY 10010","id":"20825","zip":"10010","name":"HAGH PRESCRIPTION HEADQUARTERS INC."}}, {"geometry": {"type":"Point","coordinates":[-73.969426, 40.753669]},"type":"Feature","properties": {"phone":"(212) 752-5151","address":"901 SECOND AVE., NEW YORK,NY 10017","id":"17340","zip":"10017","name":"TURTLE BAY CHEMISTS EAST, INC."}}, {"geometry": {"type":"Point","coordinates":[-73.982357, 40.777001]},"type":"Feature","properties": {"phone":"(212) 579-9955","address":"2025 BROADWAY, NEW YORK,NY 10023","id":"24283","zip":"10023","name":"DUANE READE"}}, {"geometry": {"type":"Point","coordinates":[-73.997564, 40.717608]},"type":"Feature","properties": {"phone":"","address":"111 MOTT STREET, NEW YORK,NY 10013,","id":"31073","zip":"10013","name":"CHINATOWN PHARMACY CORP."}}, {"geometry": {"type":"Point","coordinates":[-73.946609, 40.776372]},"type":"Feature","properties": {"phone":"(212) 534-2000","address":"1637 YORK AVE, NEW YORK,NY 10028","id":"28491","zip":"10028","name":"DUANE READE"}}, {"geometry": {"type":"Point","coordinates":[-73.972393, 40.794596]},"type":"Feature","properties": {"phone":"(212) 222-5824","address":"2551 BROADWAY, NEW YORK,NY 10025","id":"22625","zip":"10025","name":"RITE AID OF NEW YORK, INC."}}, {"geometry": {"type":"Point","coordinates":[-73.954657, 40.82028]},"type":"Feature","properties": {"phone":"(212) 281-1270","address":"3340 BROADWAY, NEW YORK,NY 10031","id":"22629","zip":"10031","name":"3340 BROADWAY PHARMACY, INC."}}, {"geometry": {"type":"Point","coordinates":[-73.977558, 40.779075]},"type":"Feature","properties": {"phone":"(212) 877-3308","address":"309 COLUMBUS AVENUE, NEW YORK,NY 10023","id":"27997","zip":"10023","name":"FEDERAL EASTERN CHEMISTS LLC."}}, {"geometry": {"type":"Point","coordinates":[-73.940429, 40.797676]},"type":"Feature","properties": {"phone":"(212) 987-1372","address":"2108 3RD. AVE., NEW YORK,NY 10029","id":"23716","zip":"10029","name":"DUANE READE"}}, {"geometry": {"type":"Point","coordinates":[-73.99402, 40.713393]},"type":"Feature","properties": {"phone":"(212) 513-1177","address":"75 EAST BROADWAY, SOUTH BUILDING, NEW YORK,NY 10002","id":"31098","zip":"10002","name":"LC PHARMACY INC."}}, {"geometry": {"type":"Point","coordinates":[-73.992327, 40.742635]},"type":"Feature","properties": {"phone":"(212) 463-8873","address":"71 WEST 23RD ST., NEW YORK,NY 10010","id":"22978","zip":"10010","name":"DUANE READE"}}, {"geometry": {"type":"Point","coordinates":[-73.956314, 40.771873]},"type":"Feature","properties": {"phone":"(212) 535-4710","address":"1475 SECOND AVE., NEW YORK,NY 10021","id":"21723","zip":"10021","name":"FRS DRUG INC."}}, {"geometry": {"type":"Point","coordinates":[-73.99747, 40.736546]},"type":"Feature","properties": {"phone":"(212) 727-3720","address":"501 6TH AVE., NEW YORK,NY 10011","id":"22972","zip":"10011","name":"RITE AID OF NEW YORK, INC."}}, {"geometry": {"type":"Point","coordinates":[-73.920282, 40.866262]},"type":"Feature","properties": {"phone":"(212) 942-1883","address":"546-558 WEST 207TH ST, NEW YORK,NY 10034","id":"22305","zip":"10034","name":"RITE AID OF NEW YORK, INC."}}, {"geometry": {"type":"Point","coordinates":[-73.951513, 40.77433]},"type":"Feature","properties": {"phone":"(212) 249-5198","address":"1569-1575 FIRST AVE., NEW YORK,NY 10028","id":"24455","zip":"10028","name":"CVS ALBANY, L.L.C."}}, {"geometry": {"type":"Point","coordinates":[-73.976678, 40.750767]},"type":"Feature","properties": {"phone":"(212) 684-8700","address":"370 LEXINGTON AVE., NEW YORK,NY 10017","id":"28883","zip":"10017","name":"370 PHARMACY CORP."}}, {"geometry": {"type":"Point","coordinates":[-73.990627, 40.715728]},"type":"Feature","properties": {"phone":"","address":"31 LUDLOW STREET, NEW YORK,NY 10002,","id":"31765","zip":"10002","name":"STANLEY'S PHARMACY INC."}}, {"geometry": {"type":"Point","coordinates":[-73.985656, 40.748433]},"type":"Feature","properties": {"phone":"(212) 868-5659","address":"350 FIFTH AVE., NEW YORK,NY 10118","id":"25307","zip":"10118","name":"WALGREEN EASTERN CO., INC."}}, {"geometry": {"type":"Point","coordinates":[-73.951616, 40.810845]},"type":"Feature","properties": {"phone":"(212) 961-1246","address":"309 WEST 125TH ST, NEW YORK,NY 10027","id":"22282","zip":"10027","name":"RITE AID OF NEW YORK, INC."}}, {"geometry": {"type":"Point","coordinates":[-73.953251, 40.776088]},"type":"Feature","properties": {"phone":"(212) 427-6940","address":"1646 2ND AVENUE, NEW YORK,NY 10028","id":"23437","zip":"10028","name":"DUANE READE"}}, {"geometry": {"type":"Point","coordinates":[-73.953928, 40.770653]},"type":"Feature","properties": {"phone":"(212) 585-2106","address":"1467 FIRST AVE. #168, NEW YORK,NY 10075","id":"23436","zip":"10075","name":"DUANE READE"}}, {"geometry": {"type":"Point","coordinates":[-73.941199, 40.792821]},"type":"Feature","properties": {"phone":"(212) 996-5929","address":"2123 2ND AVE., NEW YORK,NY 10020","id":"31567","zip":"10020","name":"SKYLINE PHARMACY INC."}}, {"geometry": {"type":"Point","coordinates":[-73.94747, 40.825735]},"type":"Feature","properties": {"phone":"(212) 368-3759","address":"1728 AMSTERDAM AVE, NEW YORK,NY 10031","id":"29081","zip":"10031","name":"RX NOW INC."}}, {"geometry": {"type":"Point","coordinates":[-73.965499, 40.76569]},"type":"Feature","properties": {"phone":"(212) 734-5678","address":"855 LEXINGTON AVENUE, NEW YORK,NY 10065","id":"31891","zip":"10065","name":"J.BIRDS, INC."}}, {"geometry": {"type":"Point","coordinates":[-73.994266, 40.718392]},"type":"Feature","properties": {"phone":"","address":"244 GRAND STREET, NEW YORK,NY 10002,","id":"30411","zip":"10002","name":"FOREVER HEALTH PHARMACY I, LLC"}}, {"geometry": {"type":"Point","coordinates":[-74.003206, 40.733567]},"type":"Feature","properties": {"phone":"(212) 627-2662","address":"75 CHRISTOPHER STREET, NEW YORK,NY 10014","id":"23809","zip":"10014","name":"CVS ALBANY, L.L.C."}}, {"geometry": {"type":"Point","coordinates":[-73.956274, 40.778275]},"type":"Feature","properties": {"phone":"(212) 535-3438","address":"1241 LEXINGTON AVENUE, NEW YORK,NY 10028","id":"29710","zip":"10028","name":"CVS ALBANY, L.L.C."}}, {"geometry": {"type":"Point","coordinates":[-73.991527, 40.717681]},"type":"Feature","properties": {"phone":"(212) 925-3838","address":"302A GRAND ST, NEW YORK,NY 10002","id":"30556","zip":"10002","name":"CENTURY GRAND, INC."}}, {"geometry": {"type":"Point","coordinates":[-73.982123, 40.778509]},"type":"Feature","properties": {"phone":"(212) 799-1067","address":"2069 BROADWAY, NEW YORK,NY 10023","id":"30557","zip":"10023","name":"DUANE READE"}}, {"geometry": {"type":"Point","coordinates":[-73.980866, 40.733287]},"type":"Feature","properties": {"phone":"(212) 777-0740","address":"298 1ST AVE, NEW YORK,NY 10009","id":"27965","zip":"10009","name":"WALGREEN EASTERN CO., INC."}}, {"geometry": {"type":"Point","coordinates":[-73.95489, 40.805141]},"type":"Feature","properties": {"phone":"(212) 666-3013","address":"2170 FREDERICK DOUGLASS, BLVD., NEW YORK,NY 10026","id":"27138","zip":"10026","name":"RITE AID OF NEW YORK, INC."}}, {"geometry": {"type":"Point","coordinates":[-73.965304, 40.759263]},"type":"Feature","properties": {"phone":"(212) 223-1130","address":"1082 2ND AVE., NEW YORK,NY 10022","id":"24626","zip":"10022","name":"DUANE READE"}}, {"geometry": {"type":"Point","coordinates":[-73.947834, 40.83046]},"type":"Feature","properties": {"phone":"(212) 491-2910","address":"3663 BROADWAY, NEW YORK,NY 10031","id":"22880","zip":"10031","name":"2000 NINOS PHARMACY INC."}}, {"geometry": {"type":"Point","coordinates":[-73.986924, 40.725696]},"type":"Feature","properties": {"phone":"(212) 388-9348","address":"81 1ST. AVE., NEW YORK,NY 10003","id":"22817","zip":"10003","name":"RITE AID OF NEW YORK, INC."}}, {"geometry": {"type":"Point","coordinates":[-73.983827, 40.779716]},"type":"Feature","properties": {"phone":"(212) 580-0497","address":"253 WEST 72ND. ST., NEW YORK,NY 10023","id":"24979","zip":"10023","name":"DUANE READE"}}, {"geometry": {"type":"Point","coordinates":[-73.983118, 40.715175]},"type":"Feature","properties": {"phone":"(212) 677-1008","address":"500 GRAND ST., NEW YORK,NY 10002","id":"24978","zip":"10002","name":"CVS ALBANY, L.L.C."}}, {"geometry": {"type":"Point","coordinates":[-73.965433, 40.801375]},"type":"Feature","properties": {"phone":"(212) 222-4650","address":"960 AMSTERDAM AVENUE, NEW YORK,NY 10025","id":"17349","zip":"10025","name":"FOZI, INC."}}, {"geometry": {"type":"Point","coordinates":[-73.953213, 40.776327]},"type":"Feature","properties": {"phone":"(212) 772-1110","address":"1609 2ND AVE., NEW YORK,NY 10028","id":"29888","zip":"10028","name":"VITA HEALTH APOTHECARY INC."}}, {"geometry": {"type":"Point","coordinates":[-73.983398, 40.718522]},"type":"Feature","properties": {"phone":"(646) 368-9960","address":"106 RIDGE ST., NEW YORK,NY 10002","id":"29889","zip":"10002","name":"OLIVE TREE PHARMACY LLC"}}, {"geometry": {"type":"Point","coordinates":[-73.939203, 40.826263]},"type":"Feature","properties": {"phone":"(212) 234-3900","address":"2830 FREDERICK DOUGLAS, BLVD, NEW YORK,NY 10039","id":"30325","zip":"10039","name":"GSPM PHARMACY INC."}}, {"geometry": {"type":"Point","coordinates":[-74.015961, 40.704971]},"type":"Feature","properties": {"phone":"(212) 248-3922","address":"17 BATTERY PL. SOUTH, NEW YORK,NY 10004","id":"25394","zip":"10004","name":"DUANE READE"}}, {"geometry": {"type":"Point","coordinates":[-73.987864, 40.752872]},"type":"Feature","properties": {"phone":"(212) 575-6868","address":"1385 BROADWAY, NEW YORK,NY 10018","id":"26805","zip":"10018","name":"GIDEON'S DRUGS, INC."}}, {"geometry": {"type":"Point","coordinates":[-73.940028, 40.836005]},"type":"Feature","properties": {"phone":"(212) 795-3218","address":"1033 ST. NICHOLAS AVE., NEW YORK,NY 10032","id":"26806","zip":"10032","name":"RITE AID OF NEW YORK, INC."}}, {"geometry": {"type":"Point","coordinates":[-73.955075, 40.777294]},"type":"Feature","properties": {"phone":"(212) 988-2115","address":"1481 THIRD AVE., NEW YORK,NY 10028","id":"26803","zip":"10028","name":"DUANE READE"}}, {"geometry": {"type":"Point","coordinates":[-73.98515, 40.778196]},"type":"Feature","properties": {"phone":"(212) 496-4198","address":"200 WEST END AVENUE, NEW YORK,NY 10023","id":"29404","zip":"10023","name":"CVS ALBANY, L.L.C."}}, {"geometry": {"type":"Point","coordinates":[-73.947127, 40.775927]},"type":"Feature","properties": {"phone":"(212) 737-8800","address":"1631 YORK AVE., NEW YORK,NY 10028","id":"23934","zip":"10028","name":"FARMACIA INC."}}, {"geometry": {"type":"Point","coordinates":[-73.995831, 40.759633]},"type":"Feature","properties": {"phone":"(212) 244-4285","address":"500 W. 42ND. ST., NEW YORK,NY 10036","id":"26198","zip":"10036","name":"CVS ALBANY, L.L.C."}}, {"geometry": {"type":"Point","coordinates":[-74.007422, 40.727784]},"type":"Feature","properties": {"phone":"(212) 989-1400","address":"345 HUDSON ST., NEW YORK,NY 10014","id":"29566","zip":"10014","name":"HUDSON SQUARE PHARMACY LLC"}}, {"geometry": {"type":"Point","coordinates":[-73.99601, 40.718266]},"type":"Feature","properties": {"phone":"(212) 343-8899","address":"87 ELIZABETH STREET, 1ST FLOOR, NEW YORK,NY 10013","id":"29565","zip":"10013","name":"EZ CARE PHARMACY LLC"}}, {"geometry": {"type":"Point","coordinates":[-73.996078, 40.718157]},"type":"Feature","properties": {"phone":"(212) 966-7588","address":"85 ELIZABETH STREET., NEW YORK,NY 10013","id":"26196","zip":"10013","name":"FIRST PHARMACEUTICAL CORP."}}, {"geometry": {"type":"Point","coordinates":[-73.936639, 40.802214]},"type":"Feature","properties": {"phone":"(212) 426-6200","address":"2253 3RD AVE., NEW YORK,NY 10035","id":"31731","zip":"10035","name":"NORTH STAR PHARMACY INC."}}, {"geometry": {"type":"Point","coordinates":[-73.957372, 40.776814]},"type":"Feature","properties": {"phone":"(212) 288-9500","address":"1209 LEXINGTON AVE., NEW YORK,NY 10028","id":"1","zip":"10028","name":"J. LEON LASCOFF &amp; SON INC."}}, {"geometry": {"type":"Point","coordinates":[-73.971661, 40.795327]},"type":"Feature","properties": {"phone":"(212) 678-8556","address":"2575 BROADWAY, NEW YORK,NY 10025","id":"28943","zip":"10025","name":"WALGREEN EASTERN CO., INC"}}, {"geometry": {"type":"Point","coordinates":[-74.009859, 40.706864]},"type":"Feature","properties": {"phone":"(212) 742-8454","address":"40 WALL ST., NEW YORK,NY 10005","id":"18631","zip":"10005","name":"DUANE READE"}}, {"geometry": {"type":"Point","coordinates":[-73.984454, 40.748846]},"type":"Feature","properties": {"phone":"(212) 279-0208","address":"358-362 5TH AVE., NEW YORK,NY 10001","id":"18630","zip":"10001","name":"DUANE READE"}}, {"geometry": {"type":"Point","coordinates":[-73.987616, 40.720039]},"type":"Feature","properties": {"phone":"(212) 529-4532","address":"131 ESSEX ST., NEW YORK,NY 10002","id":"19989","zip":"10002","name":"1699 FANCY PHARMACY INC."}}, {"geometry": {"type":"Point","coordinates":[-73.947382, 40.783664]},"type":"Feature","properties": {"phone":"(212) 987-5494","address":"1842 2ND AVE, NEW YORK,NY 10128","id":"29812","zip":"10128","name":"CARNEGIE HILL CHEMISTS, INC."}}, {"geometry": {"type":"Point","coordinates":[-73.93875, 40.839749]},"type":"Feature","properties": {"phone":"(646) 448-4848","address":"27 AUDUBON AVE, NEW YORK,NY 10032","id":"29811","zip":"10032","name":"27 AUDUBON PHARMACY CORP."}}, {"geometry": {"type":"Point","coordinates":[-73.932819, 40.85217]},"type":"Feature","properties": {"phone":"(212) 927-0999","address":"629 WEST 185TH ST., NEW YORK,NY 10033","id":"27346","zip":"10033","name":"BROADWAY PHARMACY III, INC"}}, {"geometry": {"type":"Point","coordinates":[-73.949074, 40.788123]},"type":"Feature","properties": {"phone":"","address":"1570 LEXINGTON AVENUE, NEW YORK,NY 10029,","id":"31286","zip":"10029","name":"LEXINGTON HEALTHCARE INC."}}, {"geometry": {"type":"Point","coordinates":[-73.997418, 40.716865]},"type":"Feature","properties": {"phone":"(212) 233-2833","address":"156 CANAL STREET, NEW YORK,NY 10013","id":"31285","zip":"10013","name":"MANHATTAN CHINATOWN PHARMACY INC."}}, {"geometry": {"type":"Point","coordinates":[-73.92733, 40.860812]},"type":"Feature","properties": {"phone":"(212) 942-5050","address":"102 NAGLE AVE., NEW YORK,NY 10040","id":"29586","zip":"10040","name":"FARMACIA CENTRAL, INC."}}, {"geometry": {"type":"Point","coordinates":[-73.936267, 40.840497]},"type":"Feature","properties": {"phone":"(646) 559-1515","address":"2201 AMSTERDAM AVENUE, #B2, NEW YORK,NY 10032","id":"30741","zip":"10032","name":"MNS PHARMACY CORP"}}, {"geometry": {"type":"Point","coordinates":[-73.934177, 40.798139]},"type":"Feature","properties": {"phone":"(212) 289-8839","address":"2325 FIRST AVE., NEW YORK,NY 10035","id":"19566","zip":"10035","name":"RX 2000, INC."}}, {"geometry": {"type":"Point","coordinates":[-74.004604, 40.733848]},"type":"Feature","properties": {"phone":"(212) 807-7566","address":"346 BLEECKER ST., NEW YORK,NY 10014","id":"31690","zip":"10014","name":"VILLAGE PHARMACY CORP."}}, {"geometry": {"type":"Point","coordinates":[-73.984828, 40.752821]},"type":"Feature","properties": {"phone":"(212) 398-9999","address":"55 WEST 39TH ST., NEW YORK,NY 10018","id":"9440","zip":"10018","name":"CORDETTE DRUG CORP."}}, {"geometry": {"type":"Point","coordinates":[-73.958074, 40.815179]},"type":"Feature","properties": {"phone":"(212) 334-5329","address":"568 W 125TH ST, NEW YORK,NY 10027","id":"29407","zip":"10027","name":"DUANE READE"}}, {"geometry": {"type":"Point","coordinates":[-73.955154, 40.769362]},"type":"Feature","properties": {"phone":"(917) 432-0634","address":"1187 1ST AVE., NEW YORK,NY 10021","id":"24520","zip":"10021","name":"DUANE READE"}}, {"geometry": {"type":"Point","coordinates":[-73.971489, 40.795879]},"type":"Feature","properties": {"phone":"(212) 864-5246","address":"2589 BROADWAY, NEW YORK,NY 10025","id":"24521","zip":"10025","name":"DUANE READE"}}, {"geometry": {"type":"Point","coordinates":[-73.943503, 40.795841]},"type":"Feature","properties": {"phone":"(212) 426-0402","address":"1797 LEXINGTON AVE., NEW YORK,NY 10029","id":"25909","zip":"10029","name":"LEX DRUGS INC."}}, {"geometry": {"type":"Point","coordinates":[-73.958952, 40.767705]},"type":"Feature","properties": {"phone":"(212) 410-4410","address":"2002 SECOND AVE., STORE 1, NEW YORK,NY 10029","id":"30807","zip":"10029","name":"BEST PHARMACY INC."}}, {"geometry": {"type":"Point","coordinates":[-73.941681, 40.804222]},"type":"Feature","properties": {"phone":"(212) 369-5555","address":"1901 MADISON AVE., NEW YORK,NY 10035","id":"16369","zip":"10035","name":"L.D.C. PHARMACY CORP."}}, {"geometry": {"type":"Point","coordinates":[-73.94021, 40.841304]},"type":"Feature","properties": {"phone":"(212) 568-1300","address":"605 WEST 168TH ST, NEW YORK,NY 10032","id":"27613","zip":"10032","name":"MELBRAN DRUGS, INC."}}, {"geometry": {"type":"Point","coordinates":[-73.977236, 40.742411]},"type":"Feature","properties": {"phone":"(212) 213-9887","address":"542-576 SECOND AVE., NEW YORK,NY 10016","id":"24248","zip":"10016","name":"RITE AID OF NEW YORK, INC."}}, {"geometry": {"type":"Point","coordinates":[-73.985723, 40.747469]},"type":"Feature","properties": {"phone":"(212) 279-2856","address":"320 FIFTH AVE., NEW YORK,NY 10001","id":"24247","zip":"10001","name":"CVS ALBANY, L.L.C."}}, {"geometry": {"type":"Point","coordinates":[-73.929611, 40.855005]},"type":"Feature","properties": {"phone":"(212) 923-2412","address":"1603 ST. NICHOLAS AVE., NEW YORK,NY 10040","id":"25087","zip":"10040","name":"ROSA PHARMACY, INC."}}, {"geometry": {"type":"Point","coordinates":[-73.986126, 40.762313]},"type":"Feature","properties": {"phone":"(212) 247-8384","address":"301 WEST 50TH ST., NEW YORK,NY 10019","id":"24241","zip":"10019","name":"RITE AID OF NEW YORK, INC."}}, {"geometry": {"type":"Point","coordinates":[-73.967924, 40.797502]},"type":"Feature","properties": {"phone":"(212) 678-0084","address":"850 AMSTERDAM AVE., NEW YORK,NY 10025","id":"26068","zip":"10025","name":"NIHAR CORP."}}, {"geometry": {"type":"Point","coordinates":[-73.9573, 40.766506]},"type":"Feature","properties": {"phone":"(212) 535-1700","address":"1299 FIRST AVE., NEW YORK,NY 10021","id":"30730","zip":"10021","name":"H &amp; C CHEMISTS INC."}}, {"geometry": {"type":"Point","coordinates":[-73.934573, 40.802391]},"type":"Feature","properties": {"phone":"(212) 348-6700","address":"245 EAST 124TH STREET, NEW YORK,NY 10035","id":"31230","zip":"10035","name":"ERRI INC."}}, {"geometry": {"type":"Point","coordinates":[-73.995891, 40.717414]},"type":"Feature","properties": {"phone":"(212) 966-7599","address":"151-155 HESTER ST, NEW YORK,NY 10013","id":"29063","zip":"10013","name":"HESTER PHARMACY CORP."}}, {"geometry": {"type":"Point","coordinates":[-73.936849, 40.820003]},"type":"Feature","properties": {"phone":"","address":"685 LENOX AVENUE, NEW YORK,NY 10037,","id":"31234","zip":"10037","name":"LENOX SUPER PHARMACY INC."}}, {"geometry": {"type":"Point","coordinates":[-73.997456, 40.756356]},"type":"Feature","properties": {"phone":"(212) 643-6090","address":"455 WEST 37TH ST., NEW YORK,NY 10018","id":"30360","zip":"10018","name":"DUANE READE"}}, {"geometry": {"type":"Point","coordinates":[-74.006261, 40.710921]},"type":"Feature","properties": {"phone":"(212) 587-5252","address":"19 BEEKMAN STREET, NEW YORK,NY 10038","id":"28047","zip":"10038","name":"DTH PHARMACY, INC."}}, {"geometry": {"type":"Point","coordinates":[-73.98236, 40.764516]},"type":"Feature","properties": {"phone":"","address":"1721 BROADWAY, NEW YORK,NY 10019,","id":"31604","zip":"10019","name":"1721 CARNEGIE HILL PHARMACY INC."}}, {"geometry": {"type":"Point","coordinates":[-73.989101, 40.731028]},"type":"Feature","properties": {"phone":"(212) 388-0340","address":"50 3RD AVE., NEW YORK,NY 10003","id":"22379","zip":"10003","name":"BIOMED DRUGS AND SURGICAL SUPPLY CO. INC."}}, {"geometry": {"type":"Point","coordinates":[-74.000182, 40.711902]},"type":"Feature","properties": {"phone":"(212) 791-5795","address":"7 MADISON ST., NEW YORK,NY 10038","id":"23757","zip":"10038","name":"RITE AID OF NEW YORK, INC."}}, {"geometry": {"type":"Point","coordinates":[-73.948273, 40.784274]},"type":"Feature","properties": {"phone":"(212) 828-8664","address":"1849 2ND AVE., NEW YORK,NY 10128","id":"23206","zip":"10128","name":"RITE AID OF NEW YORK, INC."}}, {"geometry": {"type":"Point","coordinates":[-73.963921, 40.756916]},"type":"Feature","properties": {"phone":"(212) 753-8638","address":"1000 FIRST AVE., NEW YORK,NY 10022","id":"23207","zip":"10022","name":"CIPA PHARMACY INC."}}, {"geometry": {"type":"Point","coordinates":[-73.999254, 40.734013]},"type":"Feature","properties": {"phone":"(212) 533-2700","address":"414 6TH AVE., NEW YORK,NY 10011","id":"3435","zip":"10011","name":"C.O. BIGELOW CHEMISTS, INC."}}, {"geometry": {"type":"Point","coordinates":[-73.997007, 40.722199]},"type":"Feature","properties": {"phone":"(212) 925-5307","address":"60 SPRING ST., NEW YORK,NY 10012","id":"23599","zip":"10012","name":"DUANE READE"}}, {"geometry": {"type":"Point","coordinates":[-73.982419, 40.766373]},"type":"Feature","properties": {"phone":"(212) 265-2101","address":"250 W. 57TH ST., NEW YORK,NY 10107","id":"27769","zip":"10107","name":"DUANE READE"}}, {"geometry": {"type":"Point","coordinates":[-73.999333, 40.72818]},"type":"Feature","properties": {"phone":"(917) 534-1370","address":"144 BLEEKER STREET, NEW YORK,NY 10012","id":"27768","zip":"10012","name":"DUANE READE"}}, {"geometry": {"type":"Point","coordinates":[-73.95877, 40.815472]},"type":"Feature","properties": {"phone":"(212) 662-0220","address":"3181 BROADWAY, NEW YORK,NY 10027","id":"16840","zip":"10027","name":"MORNINGSIDE PHARMACY, INC."}}, {"geometry": {"type":"Point","coordinates":[-73.937779, 40.848151]},"type":"Feature","properties": {"phone":"(212) 791-5396","address":"4188 BROADWAY, NEW YORK,NY 10033","id":"27687","zip":"10033","name":"RITE AID OF NEW YORK, INC."}}, {"geometry": {"type":"Point","coordinates":[-73.965954, 40.80478]},"type":"Feature","properties": {"phone":"(212) 316-5113","address":"2864 BROADWAY, NEW YORK,NY 10025","id":"24418","zip":"10025","name":"DUANE READE"}}, {"geometry": {"type":"Point","coordinates":[-73.95238, 40.824485]},"type":"Feature","properties": {"phone":"(212) 234-8400","address":"3471 BROADWAY, NEW YORK,NY 10031","id":"30934","zip":"10031","name":"WEST 142ND STREET PHARMACY CORP."}}, {"geometry": {"type":"Point","coordinates":[-74.007224, 40.710119]},"type":"Feature","properties": {"phone":"(212) 233-5021","address":"129 FULTON ST., NEW YORK,NY 10038","id":"24794","zip":"10038","name":"CVS ALBANY, L.L.C"}}, {"geometry": {"type":"Point","coordinates":[-73.983565, 40.722192]},"type":"Feature","properties": {"phone":"(212) 375-9000","address":"194 EAST 2ND. ST., NEW YORK,NY 10009","id":"25949","zip":"10009","name":"DUANE READE"}}, {"geometry": {"type":"Point","coordinates":[-73.92765, 40.864901]},"type":"Feature","properties": {"phone":"(212) 942-1234","address":"4740 BROADWAY, NEW YORK,NY 10040","id":"29616","zip":"10040","name":"BROADWAY PHARMACY NYC, INC"}}, {"geometry": {"type":"Point","coordinates":[-73.919376, 40.864554]},"type":"Feature","properties": {"phone":"(212) 304-0101","address":"506 W 207TH ST, NEW YORK,NY 10034","id":"28965","zip":"10034","name":"JRA DRUG CORP."}}, {"geometry": {"type":"Point","coordinates":[-73.996739, 40.711298]},"type":"Feature","properties": {"phone":"(212) 267-5670","address":"61 CATHERINE ST., NEW YORK,NY 10038","id":"20043","zip":"10038","name":"MEDPHARM DRUG &amp; TRADING, INC."}}, {"geometry": {"type":"Point","coordinates":[-73.977428, 40.722022]},"type":"Feature","properties": {"phone":"(212) 228-6137","address":"753 E 5TH ST, NEW YORK,NY 10009","id":"27486","zip":"10009","name":"EQUAL CARE PHARMACY, INC"}}, {"geometry": {"type":"Point","coordinates":[-73.939128, 40.844236]},"type":"Feature","properties": {"phone":"(212) 923-7530","address":"4085 BROADWAY, NEW YORK,NY 10032","id":"18488","zip":"10032","name":"V.L.V. MED PHARMACY, INC."}}, {"geometry": {"type":"Point","coordinates":[-73.995059, 40.717262]},"type":"Feature","properties": {"phone":"(212) 219-0449","address":"95 BOWERY, NEW YORK,NY 10002","id":"18560","zip":"10002","name":"BOWERY PHARMACY, INC."}}, {"geometry": {"type":"Point","coordinates":[-73.987818, 40.738542]},"type":"Feature","properties": {"phone":"(212) 533-7580","address":"254 PARK AVE SOUTH, NEW YORK,NY 10010","id":"18607","zip":"10010","name":"DUANE READE"}}, {"geometry": {"type":"Point","coordinates":[-73.940985, 40.805721]},"type":"Feature","properties": {"phone":"(212) 222-3576","address":"567 W. 125TH ST., STORE #2, NEW YORK,NY 10027","id":"28829","zip":"10027","name":"MANHATTANVILLE PHARMACY INC."}}, {"geometry": {"type":"Point","coordinates":[-73.986288, 40.756288]},"type":"Feature","properties": {"phone":"(212) 302-0552","address":"1471 BROADWAY, NEW YORK,NY 10036","id":"29200","zip":"10036","name":"WALGREEN EASTERN CO., INC."}}, {"geometry": {"type":"Point","coordinates":[-73.939911, 40.815282]},"type":"Feature","properties": {"phone":"(212) 939-8064","address":"530 LENOX AVE., NEW YORK,NY 10037","id":"28985","zip":"10037","name":"HARLEM HOSPITAL CENTER"}}, {"geometry": {"type":"Point","coordinates":[-73.965691, 40.762564]},"type":"Feature","properties": {"phone":"(212) 750-4100","address":"1025-A THIRD AVE., NEW YORK,NY 10021","id":"26361","zip":"10021","name":"THIRD AVENUE LERMAN PHARMACEUTICS, INC."}}, {"geometry": {"type":"Point","coordinates":[-73.987113, 40.740512]},"type":"Feature","properties": {"phone":"(212) 685-1641","address":"33 EAST 23RD. ST., NEW YORK,NY 10010","id":"26363","zip":"10010","name":"WALGREEN EASTERN CO., INC."}}, {"geometry": {"type":"Point","coordinates":[-73.980358, 40.730399]},"type":"Feature","properties": {"phone":"(212) 979-2455","address":"516 E. 14TH ST. & AVE. A, NEW YORK,NY 10009","id":"22672","zip":"10009","name":"RITE AID OF NEW YORK, INC."}}, {"geometry": {"type":"Point","coordinates":[-73.954077, 40.781849]},"type":"Feature","properties": {"phone":"(212) 722-0014","address":"1356 LEXINGTON AVE., NEW YORK,NY 10128","id":"28826","zip":"10128","name":"DUANE READE"}}, {"geometry": {"type":"Point","coordinates":[-73.987065, 40.715978]},"type":"Feature","properties": {"phone":"(212) 529-7115","address":"408 GRAND STREET, NEW YORK,NY 10002","id":"19388","zip":"10002","name":"RITE AID DRUG PALACE, INC."}}, {"geometry": {"type":"Point","coordinates":[-73.995377, 40.718031]},"type":"Feature","properties": {"phone":"(212) 966-8682","address":"108 BOWERY, NEW YORK,NY 10013","id":"26567","zip":"10013","name":"HEALTHY PHARMACY INC."}}, {"geometry": {"type":"Point","coordinates":[-73.93794, 40.847793]},"type":"Feature","properties": {"phone":"(212) 923-5733","address":"4180 BROADWAY, NEW YORK,NY 10033","id":"22847","zip":"10033","name":"AMI PHARMACY, INC."}}, {"geometry": {"type":"Point","coordinates":[-73.997804, 40.71938]},"type":"Feature","properties": {"phone":"(212) 226-8971","address":"179 GRAND ST., NEW YORK,NY 10013","id":"22843","zip":"10013","name":"VILLY PHARMACY, INCORPORATED"}}, {"geometry": {"type":"Point","coordinates":[-73.99749, 40.714431]},"type":"Feature","properties": {"phone":"(212) 227-7065","address":"12 BOWERY STREET., NEW YORK,NY 10013","id":"22271","zip":"10013","name":"ALISONS PHARMACY, INC."}}, {"geometry": {"type":"Point","coordinates":[-73.976948, 40.787465]},"type":"Feature","properties": {"phone":"(212) 724-1950","address":"2330 BROADWAY, NEW YORK,NY 10024","id":"25491","zip":"10024","name":"LISALISA, INC."}}, {"geometry": {"type":"Point","coordinates":[-73.943737, 40.799363]},"type":"Feature","properties": {"phone":"(212) 348-7788","address":"76-80 EAST 116TH ST., NEW YORK,NY 10029","id":"25832","zip":"10029","name":"YOUR HEALTH PHARMACY, INC."}}, {"geometry": {"type":"Point","coordinates":[-73.943322, 40.793968]},"type":"Feature","properties": {"phone":"(212) 427-7123","address":"1994 THIRD AVE., NEW YORK,NY 10029","id":"13251","zip":"10029","name":"ISLA DRUG STORES INC."}}, {"geometry": {"type":"Point","coordinates":[-73.93773, 40.804692]},"type":"Feature","properties": {"phone":"(917) 492-3550","address":"135 EAST 125TH ST., NEW YORK,NY 10035","id":"24703","zip":"10035","name":"DUANE READE"}}, {"geometry": {"type":"Point","coordinates":[-73.996972, 40.718094]},"type":"Feature","properties": {"phone":"(212) 431-4398","address":"118 MOTT ST., NEW YORK,NY 10013","id":"25350","zip":"10013","name":"ALL HEALTH PHARMACY CORP."}}, {"geometry": {"type":"Point","coordinates":[-73.945472, 40.83477]},"type":"Feature","properties": {"phone":"(212) 234-1800","address":"11 EDWARD MORGAN PLACE, NEW YORK,NY 10032","id":"30168","zip":"10032","name":"WIN PHARMACY CORP"}}, {"geometry": {"type":"Point","coordinates":[-73.98878, 40.748407]},"type":"Feature","properties": {"phone":"(212) 695-4232","address":"894 6TH AVENUE, NEW YORK,NY 10001","id":"25353","zip":"10001","name":"EUREKA LABORATORIES, INC."}}, {"geometry": {"type":"Point","coordinates":[-73.987099, 40.728743]},"type":"Feature","properties": {"phone":"(212) 254-7760","address":"138 SECOND AVE., NEW YORK,NY 10003","id":"19202","zip":"10003","name":"PROCARE PHARMACY, L.L.C"}}, {"geometry": {"type":"Point","coordinates":[-74.000042, 40.728502]},"type":"Feature","properties": {"phone":"(212) 982-3133","address":"158 BLEECKER ST., NEW YORK,NY 10012","id":"22793","zip":"10012","name":"CVS ALBANY, L.L.C."}}, {"geometry": {"type":"Point","coordinates":[-74.013085, 40.703534]},"type":"Feature","properties": {"phone":"(212) 509-9020","address":"1 WHITEHALL ST., NEW YORK,NY 10024","id":"20354","zip":"10024","name":"DUANE READE"}}, {"geometry": {"type":"Point","coordinates":[-74.007584, 40.707295]},"type":"Feature","properties": {"phone":"(212) 509-8890","address":"80 MAIDEN LN., NEW YORK,NY 10038","id":"20298","zip":"10038","name":"DUANE READE"}}, {"geometry": {"type":"Point","coordinates":[-73.982005, 40.732637]},"type":"Feature","properties": {"phone":"(212) 228-2260","address":"277 FIRST AVE., NEW YORK,NY 10003","id":"22154","zip":"10003","name":"B.N.D. PHARMACY INC."}}, {"geometry": {"type":"Point","coordinates":[-73.998835, 40.71588]},"type":"Feature","properties": {"phone":"(212) 619-6190","address":"84 MULBERRY STREET, NEW YORK,NY 10013","id":"26925","zip":"10013","name":"CANALBERRY CORP."}}, {"geometry": {"type":"Point","coordinates":[-73.973616, 40.783932]},"type":"Feature","properties": {"phone":"(212) 721-3883","address":"463 COLUMBUS AVE., NEW YORK,NY 10024","id":"20292","zip":"10024","name":"82 COLUMBUS CORP."}}, {"geometry": {"type":"Point","coordinates":[-74.002279, 40.739736]},"type":"Feature","properties": {"phone":"","address":"81 EIGHTH AVE, NEW YORK,NY 10011,","id":"30566","zip":"10011","name":"CVS ALBANY, L.L.C."}}, {"geometry": {"type":"Point","coordinates":[-73.965691, 40.762564]},"type":"Feature","properties": {"phone":"(212) 750-4100","address":"1025 A 3RD AVENUE, NEW YORK,NY 10065","id":"29729","zip":"10065","name":"DORVIT PHARMACY INC."}}, {"geometry": {"type":"Point","coordinates":[-73.991211, 40.724001]},"type":"Feature","properties": {"phone":"(212) 260-3131","address":"7 SECOND AVENUE, NEW YORK,NY 10003","id":"29728","zip":"10003","name":"AVALON PHARMACY INC."}}, {"geometry": {"type":"Point","coordinates":[-73.946689, 40.826207]},"type":"Feature","properties": {"phone":"(212) 234-7959","address":"1743 AMSTERDAM AVE., NEW YORK,NY 10031","id":"26316","zip":"10031","name":"SHRINEETA PHARMACY INC."}}, {"geometry": {"type":"Point","coordinates":[-73.999427, 40.717278]},"type":"Feature","properties": {"phone":"(212) 219-3287","address":"131 WALKER ST., NEW YORK,NY 10013","id":"27143","zip":"10013","name":"NEW YORK PHARMACY, INC."}}, {"geometry": {"type":"Point","coordinates":[-73.988608, 40.712867]},"type":"Feature","properties": {"phone":"(212) 227-5227","address":"225 MADISON ST., NEW YORK,NY 10002","id":"27146","zip":"10002","name":"RDS PHARMACY, INC."}}, {"geometry": {"type":"Point","coordinates":[-73.992436, 40.735383]},"type":"Feature","properties": {"phone":"(212) 989-3639","address":"1ST FLOOR, 24 EAST 14TH ST., NEW YORK,NY 10003","id":"22086","zip":"10003","name":"DUANE READE"}}, {"geometry": {"type":"Point","coordinates":[-73.951447, 40.791055]},"type":"Feature","properties": {"phone":"(212) 410-2508","address":"1490 MADISON AVENUE, NEW YORK,NY 10029","id":"27149","zip":"10029","name":"DUANE READE"}}, {"geometry": {"type":"Point","coordinates":[-73.94284, 40.785858]},"type":"Feature","properties": {"phone":"(212) 360-5530","address":"1951 1ST. AVE., NEW YORK,NY 10029","id":"27261","zip":"10029","name":"RITE AID OF NEW YORK, INC."}}, {"geometry": {"type":"Point","coordinates":[-73.996616, 40.714756]},"type":"Feature","properties": {"phone":"(212) 966-4420","address":"25 BOWERY ST., NEW YORK,NY 10002","id":"16069","zip":"10002","name":"CONFUCIUS PHARMACY INC."}}, {"geometry": {"type":"Point","coordinates":[-73.942796, 40.836543]},"type":"Feature","properties": {"phone":"(212) 923-6111","address":"3860 BROADWAY, NEW YORK,NY 10032","id":"26695","zip":"10032","name":"JUSTIN PHARMACY INC."}}, {"geometry": {"type":"Point","coordinates":[-73.93803, 40.850718]},"type":"Feature","properties": {"phone":"(212) 795-4383","address":"766 WEST 181ST STREET, NEW YORK,NY 10033","id":"25533","zip":"10033","name":"VIM CHEMIST INC."}}, {"geometry": {"type":"Point","coordinates":[-73.937388, 40.80177]},"type":"Feature","properties": {"phone":"(212) 837-2692","address":"2240 3RD AVE., NEW YORK,NY 10035","id":"30846","zip":"10035","name":"THIRD AVE PHARMACY INC."}}, {"geometry": {"type":"Point","coordinates":[-73.996599, 40.72493]},"type":"Feature","properties": {"phone":"(212) 343-2567","address":"598 BROADWAY, NEW YORK,NY 10012","id":"21830","zip":"10012","name":"DUANE READE"}}, {"geometry": {"type":"Point","coordinates":[-73.925557, 40.862562]},"type":"Feature","properties": {"phone":"(212) 304-4698","address":"130 DYCKMAN ST., NEW YORK,NY 10040","id":"24800","zip":"10040","name":"CVS ALBANY, L.L.C."}}, {"geometry": {"type":"Point","coordinates":[-73.988431, 40.764561]},"type":"Feature","properties": {"phone":"(212) 265-8110","address":"767 9TH AVE., NEW YORK,NY 10019","id":"19519","zip":"10019","name":"JAYASUDHA INC."}}, {"geometry": {"type":"Point","coordinates":[-73.952509, 40.768269]},"type":"Feature","properties": {"phone":"(212) 249-1777","address":"1394 YORK AVE., NEW YORK,NY 10021","id":"17546","zip":"10021","name":"BARMED DRUGS INC."}}, {"geometry": {"type":"Point","coordinates":[-73.981234, 40.737457]},"type":"Feature","properties": {"phone":"(212) 684-8300","address":"385 A/B SECOND AVENUE, NEW YORK,NY 10010","id":"24569","zip":"10010","name":"PROHEALTH PHARMACY, INC."}}, {"geometry": {"type":"Point","coordinates":[-73.99907, 40.71713]},"type":"Feature","properties": {"phone":"(212) 748-4900","address":"210-212 CANAL STREET, NEW YORK,NY 10013","id":"28411","zip":"10013","name":"CANAL STREET PHARMACY INC."}}, {"geometry": {"type":"Point","coordinates":[-73.946258, 40.789846]},"type":"Feature","properties": {"phone":"(212) 369-1350","address":"1868 THIRD AVENUE, NEW YORK,NY 10029","id":"25433","zip":"10029","name":"CARE WELL PHARMACY,INC."}}, {"geometry": {"type":"Point","coordinates":[-73.994384, 40.743487]},"type":"Feature","properties": {"phone":"(212) 255-5900","address":"140 WEST 23RD. ST., NEW YORK,NY 10011","id":"25120","zip":"10011","name":"DUANE READE"}}, {"geometry": {"type":"Point","coordinates":[-73.955281, 40.785669]},"type":"Feature","properties": {"phone":"(212) 534-1300","address":"1331 MADISON AVE., NEW YORK,NY 10128","id":"29534","zip":"10128","name":"CARNEGIE HILL PHARMACY, INC."}}, {"geometry": {"type":"Point","coordinates":[-73.953244, 40.788192]},"type":"Feature","properties": {"phone":"(212) 722-3200","address":"1407 MADISON AVE., NEW YORK,NY 10029","id":"20222","zip":"10029","name":"MADISON AVENUE PHARMACY INC."}}, {"geometry": {"type":"Point","coordinates":[-73.979459, 40.757769]},"type":"Feature","properties": {"phone":"(212) 730-4914","address":"22 W. 48TH ST., NEW YORK,NY 10036","id":"22494","zip":"10036","name":"DUANE READE"}}, {"geometry": {"type":"Point","coordinates":[-73.953812, 40.816479]},"type":"Feature","properties": {"phone":"(212) 234-4666","address":"1439 AMSTERDAM AVE., NEW YORK,NY 10027","id":"28220","zip":"10027","name":"OMEGA PHARMACY, INC"}}, {"geometry": {"type":"Point","coordinates":[-73.990407, 40.711062]},"type":"Feature","properties": {"phone":"(212) 227-3520","address":"237-239 CHERRY ST., NEW YORK,NY 10002","id":"17977","zip":"10002","name":"PATHMARK STORES, INC."}}, {"geometry": {"type":"Point","coordinates":[-73.967747, 40.760078]},"type":"Feature","properties": {"phone":"(212) 980-0965","address":"949 THIRD AVE., NEW YORK,NY 10022","id":"22499","zip":"10022","name":"DUANE READE"}}, {"geometry": {"type":"Point","coordinates":[-73.943201, 40.82322]},"type":"Feature","properties": {"phone":"(212) 939-0941","address":"320 W. 145TH ST., NEW YORK,NY 10039","id":"26229","zip":"10039","name":"DUANE READE"}}, {"geometry": {"type":"Point","coordinates":[-73.985465, 40.723633]},"type":"Feature","properties": {"phone":"(212) 260-4878","address":"41 AVENUE A, NEW YORK,NY 10009","id":"26385","zip":"10009","name":"AVENUE A PHARMACY INC."}}, {"geometry": {"type":"Point","coordinates":[-73.991174, 40.74516]},"type":"Feature","properties": {"phone":"(646) 336-8414","address":"777 6TH AVE., NEW YORK,NY 10001","id":"24939","zip":"10001","name":"DUANE READE"}}, {"geometry": {"type":"Point","coordinates":[-73.931687, 40.795574]},"type":"Feature","properties": {"phone":"(212) 896-5882","address":"517 EAST 117TH ST, NEW YORK,NY 10035","id":"29843","zip":"10035","name":"COSTCO WHOLESALE CORPORATION"}}, {"geometry": {"type":"Point","coordinates":[-73.949948, 40.802129]},"type":"Feature","properties": {"phone":"(212) 666-8100","address":"102 D E F WEST 116TH ST., NEW YORK,NY 10026","id":"30363","zip":"10026","name":"HARLEM RX INC."}}, {"geometry": {"type":"Point","coordinates":[-73.939258, 40.80214]},"type":"Feature","properties": {"phone":"(212) 410-4200","address":"1990 LEXINGTON AVE, NEW YORK,NY 10035","id":"29849","zip":"10035","name":"COMFORT CARE PHARMACY, INC."}}, {"geometry": {"type":"Point","coordinates":[-73.94378, 40.829895]},"type":"Feature","properties": {"phone":"(212) 690-1331","address":"1873 AMSTERDAM AVE., NEW YORK,NY 10031","id":"14562","zip":"10031","name":"BOAN DRUGS INC."}}, {"geometry": {"type":"Point","coordinates":[-73.916783, 40.868941]},"type":"Feature","properties": {"phone":"","address":"5030 BROADWAY, NEW YORK,NY 10034,","id":"31549","zip":"10034","name":"ROYAL DRUGS CORP"}}, {"geometry": {"type":"Point","coordinates":[-73.989901, 40.757568]},"type":"Feature","properties": {"phone":"(212) 977-1562","address":"661 8TH AVE., NEW YORK,NY 10036","id":"21942","zip":"10036","name":"DUANE READE"}}, {"geometry": {"type":"Point","coordinates":[-73.990352, 40.761875]},"type":"Feature","properties": {"phone":"(212) 246-8169","address":"687 9TH AVE., NEW YORK,NY 10036","id":"3599","zip":"10036","name":"ESCO DRUG CO., INC."}}, {"geometry": {"type":"Point","coordinates":[-73.976884, 40.788102]},"type":"Feature","properties": {"phone":"(212) 877-0888","address":"2345 BROADWAY, NEW YORK,NY 10024","id":"30018","zip":"10024","name":"P DRUGS INC."}}, {"geometry": {"type":"Point","coordinates":[-73.937022, 40.829487]},"type":"Feature","properties": {"phone":"(212) 491-5500","address":"2920 FREDERICK DOUGLAS, BLVD., NEW YORK,NY 10039","id":"30384","zip":"10039","name":"RIVERSIDE SRX INC."}}, {"geometry": {"type":"Point","coordinates":[-74.00555, 40.719999]},"type":"Feature","properties": {"phone":"(212) 219-0095","address":"3 WALKER ST., NEW YORK,NY 10013","id":"23089","zip":"10013","name":"JOIA PHARMACY INC."}}, {"geometry": {"type":"Point","coordinates":[-73.937402, 40.824372]},"type":"Feature","properties": {"phone":"(212) 234-4493","address":"2580 ADAM CLAYTON POWELL, JR. BLVD., NEW YORK,NY 10039","id":"30381","zip":"10039","name":"DUNBAR PHARMACY INC."}}, {"geometry": {"type":"Point","coordinates":[-73.944436, 40.791151]},"type":"Feature","properties": {"phone":"(917) 492-1038","address":"1915 THIRD AVE., NEW YORK,NY 10029","id":"25540","zip":"10029","name":"DUANE READE"}}, {"geometry": {"type":"Point","coordinates":[-73.991816, 40.729867]},"type":"Feature","properties": {"phone":"(212) 375-0734","address":"20 ASTOR PLACE, NEW YORK,NY 10003","id":"28702","zip":"10003","name":"WALGREEN EASTERN CO., INC."}}, {"geometry": {"type":"Point","coordinates":[-74.004681, 40.747538]},"type":"Feature","properties": {"phone":"","address":"500 WEST 23RD ST, NEW YORK,NY 10011,","id":"31491","zip":"10011","name":"CVS ALBANY, L.L.C."}}, {"geometry": {"type":"Point","coordinates":[-73.959206, 40.809098]},"type":"Feature","properties": {"phone":"(212) 749-8480","address":"1219 AMSTERDAM AVENUE, NEW YORK,NY 10027","id":"28256","zip":"10027","name":"TRI PHARMACY CORP."}}, {"geometry": {"type":"Point","coordinates":[-73.986931, 40.76028]},"type":"Feature","properties": {"phone":"(212) 974-6013","address":"771 8TH AVE, NEW YORK,NY 10036","id":"28257","zip":"10036","name":"DUANE READE"}}, {"geometry": {"type":"Point","coordinates":[-73.980852, 40.770701]},"type":"Feature","properties": {"phone":"(212) 247-8080","address":"25 CENTRAL PARK WEST, NEW YORK,NY 10023","id":"28255","zip":"10023","name":"CENTRAL PARK WEST ALACHEMISTS, INC."}}, {"geometry": {"type":"Point","coordinates":[-73.974967, 40.787786]},"type":"Feature","properties": {"phone":"(212) 712-2821","address":"540 AMSTERDAM AVENUE, NEW YORK,NY 10024","id":"24516","zip":"10024","name":"CVS ALBANY, L.L.C."}}, {"geometry": {"type":"Point","coordinates":[-73.965767, 40.754682]},"type":"Feature","properties": {"phone":"(212) 421-1046","address":"931 FIRST AVE., NEW YORK,NY 10022","id":"26749","zip":"10022","name":"DUANE READE"}}, {"geometry": {"type":"Point","coordinates":[-73.929362, 40.854959]},"type":"Feature","properties": {"phone":"(212) 927-5994","address":"1600 ST. NICHOLAS AVE., NEW YORK,NY 10040","id":"21281","zip":"10040","name":"CM &amp; P PHARMACY, INC."}}, {"geometry": {"type":"Point","coordinates":[-73.968192, 40.799577]},"type":"Feature","properties": {"phone":"(212) 665-6200","address":"2712 BROADWAY, NEW YORK,NY 10025","id":"23017","zip":"10025","name":"RITE AID OF NEW YORK, INC."}}, {"geometry": {"type":"Point","coordinates":[-73.971294, 40.757193]},"type":"Feature","properties": {"phone":"","address":"575 LEXINGTON AVE., NEW YORK,NY 10017,","id":"31165","zip":"10017","name":"DUANE READE"}}, {"geometry": {"type":"Point","coordinates":[-73.994885, 40.73675]},"type":"Feature","properties": {"phone":"(212) 281-4881","address":"3 WEST 137 STREET, STORE 2, NEW YORK,NY 10037","id":"28317","zip":"10037","name":"3 W 137 PHARMACY &amp; MEDICAL SUPPLY  INC."}}, {"geometry": {"type":"Point","coordinates":[-73.958098, 40.768953]},"type":"Feature","properties": {"phone":"(212) 249-5699","address":"1396 SECOND AVE., NEW YORK,NY 10021","id":"23337","zip":"10021","name":"CVS ALBANY, L.L.C."}}, {"geometry": {"type":"Point","coordinates":[-73.959006, 40.76766]},"type":"Feature","properties": {"phone":"(212) 734-6076","address":"1328 2ND. AVE., NEW YORK,NY 10021","id":"27113","zip":"10021","name":"WALGREEN EASTERN CO., INC."}}, {"geometry": {"type":"Point","coordinates":[-73.932596, 40.851425]},"type":"Feature","properties": {"phone":"(212) 923-4190","address":"1479 ST. NICHOLAS AVENUE, NEW YORK,NY 10033","id":"17050","zip":"10033","name":"JKM DRUGS INC."}}, {"geometry": {"type":"Point","coordinates":[-73.83926, 40.69591]},"type":"Feature","properties": {"phone":"(718) 847-5997","address":"108-13 JAMAICA AVENUE, NEW YORK,NY 11418","id":"23723","zip":"11418","name":"ASTA SURGICAL-CHEMIST INC."}}, {"geometry": {"type":"Point","coordinates":[-73.99898, 40.745518]},"type":"Feature","properties": {"phone":"(646) 486-7430","address":"315 W 23RD ST, NEW YORK,NY 10011","id":"27961","zip":"10011","name":"DUANE READE"}}, {"geometry": {"type":"Point","coordinates":[-73.986645, 40.739992]},"type":"Feature","properties": {"phone":"(212) 982-5193","address":"300 PARK AVENUE SOUTH, NEW YORK,NY 10010","id":"30940","zip":"10010","name":"CVS ALBANY, L.L.C."}}, {"geometry": {"type":"Point","coordinates":[-73.929946, 40.853854]},"type":"Feature","properties": {"phone":"(212) 795-1795","address":"1576 ST. NICHOLAS AVE., NEW YORK,NY 10040","id":"22714","zip":"10040","name":"SHREE NATH PHARMACY CORP."}}, {"geometry": {"type":"Point","coordinates":[-73.948738, 40.829221]},"type":"Feature","properties": {"phone":"(212) 926-9800","address":"3621 BROADWAY, NEW YORK,NY 10032","id":"27032","zip":"10032","name":"3340 BROADWAY PHARMACY #2 INC."}}, {"geometry": {"type":"Point","coordinates":[-73.939412, 40.842679]},"type":"Feature","properties": {"phone":"(212) 795-1240","address":"4043 BROADWAY, NEW YORK,NY 10032","id":"18844","zip":"10032","name":"J.J. PHARMACY CO., INC."}}, {"geometry": {"type":"Point","coordinates":[-73.948327, 40.814032]},"type":"Feature","properties": {"phone":"(212) 283-9114","address":"2452 8TH AVE, NEW YORK,NY 10027","id":"27035","zip":"10027","name":"VENKANY, INC."}}, {"geometry": {"type":"Point","coordinates":[-73.936778, 40.824605]},"type":"Feature","properties": {"phone":"(212) 213-8323","address":"2580 SEVENTH AVE., NEW YORK,NY 10039","id":"24584","zip":"10039","name":"JOMESSE ENTERPRISES INC"}}, {"geometry": {"type":"Point","coordinates":[-73.941165, 40.798958]},"type":"Feature","properties": {"phone":"(212) 410-0911","address":"1875 LEXINGTON AVENUE, NEW YORK,NY 10035","id":"28368","zip":"10035","name":"1875 LEXINGTON AVENUE CORP. OF NEW YORK"}}, {"geometry": {"type":"Point","coordinates":[-73.946718, 40.800196]},"type":"Feature","properties": {"phone":"(212) 722-0100","address":"3 EAST 115TH ST., NEW YORK,NY 10029","id":"31380","zip":"10029","name":"LADA PHARMACY INC."}}, {"geometry": {"type":"Point","coordinates":[-73.989835, 40.734815]},"type":"Feature","properties": {"phone":"(646) 602-2491","address":"10 UNION SQUARE EAST, NEW YORK,NY 10003","id":"28673","zip":"10003","name":"DUANE READE"}}, {"geometry": {"type":"Point","coordinates":[-73.963641, 40.774116]},"type":"Feature","properties": {"phone":"(212) 737-5560","address":"969 MADISON AVE., NEW YORK,NY 10021","id":"19328","zip":"10021","name":"ZITOMER PHARMACY INC."}}, {"geometry": {"type":"Point","coordinates":[-73.982486, 40.731477]},"type":"Feature","properties": {"phone":"(212) 388-0800","address":"245 1ST AVE., NEW YORK,NY 10003","id":"26961","zip":"10003","name":"DUANE READE"}}, {"geometry": {"type":"Point","coordinates":[-73.936639, 40.802214]},"type":"Feature","properties": {"phone":"(212) 289-1821","address":"2253 3RD AVE., 3RD FLOOR, NEW YORK,NY 10035","id":"19085","zip":"10035","name":"CHARMAR INC."}}, {"geometry": {"type":"Point","coordinates":[-73.954044, 40.821019]},"type":"Feature","properties": {"phone":"(212) 281-7121","address":"5 HAMILTON PL., NEW YORK,NY 10031","id":"15703","zip":"10031","name":"HAMILTON PRESCRIPTIONS INC."}}, {"geometry": {"type":"Point","coordinates":[-73.932673, 40.856265]},"type":"Feature","properties": {"phone":"(212) 567-6151","address":"4446 BROADWAY, NEW YORK,NY 10040","id":"18237","zip":"10040","name":"AMAR PHARMACY INC."}}, {"geometry": {"type":"Point","coordinates":[-73.958844, 40.775197]},"type":"Feature","properties": {"phone":"(212) 744-4144","address":"1142 LEXINGTON AVENUE, NEW YORK,NY 10021","id":"19327","zip":"10021","name":"MATLAND PHARMACY CORP."}}, {"geometry": {"type":"Point","coordinates":[-73.976945, 40.747072]},"type":"Feature","properties": {"phone":"(212) 696-5081","address":"545 THIRD AVE., NEW YORK,NY 10016","id":"28876","zip":"10016","name":"WALGREEN EASTERN CO., INC"}}, {"geometry": {"type":"Point","coordinates":[-73.978464, 40.755458]},"type":"Feature","properties": {"phone":"(212) 983-8291","address":"6 EAST 46TH STREET, NEW YORK,NY 10017","id":"21653","zip":"10017","name":"NUTRI-PHARMA INC."}}, {"geometry": {"type":"Point","coordinates":[-73.942196, 40.795288]},"type":"Feature","properties": {"phone":"(212) 369-6075","address":"2032 THIRD AVENUE, NEW YORK,NY 10029","id":"23429","zip":"10029","name":"THIRD AVE. PRESCRIPTION CENTER, INC."}}, {"geometry": {"type":"Point","coordinates":[-73.928846, 40.860144]},"type":"Feature","properties": {"phone":"(212) 304-3949","address":"66 NAGLE AVE., NEW YORK,NY 10040","id":"22529","zip":"10040","name":"66 NAGLE AVENUE CORP."}}, {"geometry": {"type":"Point","coordinates":[-73.948538, 40.778054]},"type":"Feature","properties": {"phone":"(212) 348-8900","address":"1695 FIRST AVE., NEW YORK,NY 10128","id":"26359","zip":"10128","name":"88TH STREET DRUG CORP."}}, {"geometry": {"type":"Point","coordinates":[-73.974396, 40.751108]},"type":"Feature","properties": {"phone":"(212) 599-4351","address":"666 3RD AVE., NEW YORK,NY 10017","id":"22297","zip":"10017","name":"DUANE READE"}}, {"geometry": {"type":"Point","coordinates":[-73.953467, 40.788416]},"type":"Feature","properties": {"phone":"(212) 996-9499","address":"1412 MADISON AVE., NEW YORK,NY 10029","id":"20466","zip":"10029","name":"MADISON CHEMIST, INC"}}, {"geometry": {"type":"Point","coordinates":[-73.95995, 40.773345]},"type":"Feature","properties": {"phone":"(212) 794-7100","address":"1091 LEXINGTON AVE., NEW YORK,NY 10021","id":"25115","zip":"10021","name":"DUANE READE"}}, {"geometry": {"type":"Point","coordinates":[-73.963184, 40.75827]},"type":"Feature","properties": {"phone":"(646) 282-0530","address":"1052 1ST AVE., NEW YORK,NY 10022","id":"26593","zip":"10022","name":"DUANE READE"}}, {"geometry": {"type":"Point","coordinates":[-73.975009, 40.785234]},"type":"Feature","properties": {"phone":"(917) 441-1756","address":"2148 BROADWAY, NEW YORK,NY 10023","id":"26592","zip":"10023","name":"DUANE READE"}}, {"geometry": {"type":"Point","coordinates":[-73.925394, 40.862606]},"type":"Feature","properties": {"phone":"(212) 568-2246","address":"170 DYCKMAN ST., NEW YORK,NY 10034","id":"29272","zip":"10034","name":"RVK PHARMACY, LTD."}}, {"geometry": {"type":"Point","coordinates":[-73.932258, 40.84858]},"type":"Feature","properties": {"phone":"(212) 740-3737","address":"522 WEST 181ST STREET, NEW YORK,NY 10033","id":"26599","zip":"10033","name":"311 PHARMACY CORP."}}, {"geometry": {"type":"Point","coordinates":[-73.944283, 40.791427]},"type":"Feature","properties": {"phone":"(212) 534-1939","address":"217 EAST 106TH ST., NEW YORK,NY 10029","id":"24737","zip":"10029","name":"SBV PHARMACY CORP."}}, {"geometry": {"type":"Point","coordinates":[-73.977032, 40.764784]},"type":"Feature","properties": {"phone":"(212) 247-1538","address":"1419 AVE. OF THE AMERICAS, NEW YORK,NY 10019","id":"3972","zip":"10019","name":"MORRIS PHARMACY INC."}}, {"geometry": {"type":"Point","coordinates":[-73.959282, 40.76328]},"type":"Feature","properties": {"phone":"(212) 734-6998","address":"1200 FIRST AVE., NEW YORK,NY 10065","id":"13108","zip":"10065","name":"A. GOLDBERGER'S PRESCRIPTIONS SINCE 1898 INC."}}, {"geometry": {"type":"Point","coordinates":[-73.925841, 40.861364]},"type":"Feature","properties": {"phone":"(212) 304-0649","address":"146 NAGLE AVENUE, NEW YORK,NY 10040","id":"24636","zip":"10040","name":"RAM PHARMACY INC"}}, {"geometry": {"type":"Point","coordinates":[-73.94068, 40.834705]},"type":"Feature","properties": {"phone":"(212) 928-4528","address":"2015 AMSTERDAM AVE., NEW YORK,NY 10032","id":"18520","zip":"10032","name":"DIN PHARMACY CORP."}}, {"geometry": {"type":"Point","coordinates":[-73.962358, 40.763333]},"type":"Feature","properties": {"phone":"(212) 758-9614","address":"1207 2ND AVE., NEW YORK,NY 10021","id":"18307","zip":"10021","name":"APPLE DRUG INC."}}, {"geometry": {"type":"Point","coordinates":[-73.999955, 40.743595]},"type":"Feature","properties": {"phone":"(212) 691-9050","address":"197 8TH AVE., NEW YORK,NY 10011","id":"25005","zip":"10011","name":"BIOSCRIP PHARMACY, INC."}}, {"geometry": {"type":"Point","coordinates":[-73.976629, 40.726445]},"type":"Feature","properties": {"phone":"(212) 228-0764","address":"178 AVENUE C., NEW YORK,NY 10009","id":"17378","zip":"10009","name":"TRIGUN PHARMACY INC."}}, {"geometry": {"type":"Point","coordinates":[-74.004214, 40.716686]},"type":"Feature","properties": {"phone":"(212) 941-7900","address":"345 BROADWAY, NEW YORK,NY 10013","id":"30587","zip":"10013","name":"PRIME ESSENTIALS LLC"}}, {"geometry": {"type":"Point","coordinates":[-73.989614, 40.716686]},"type":"Feature","properties": {"phone":"(212) 228-0068","address":"349 GRAND ST., NEW YORK,NY 10002","id":"30234","zip":"10002","name":"GRAND HEALTH PHARMACY, INC."}}, {"geometry": {"type":"Point","coordinates":[-73.997168, 40.71359]},"type":"Feature","properties": {"phone":"(212) 219-2717","address":"16-18 EAST BROADWAY, NEW YORK,NY 10002","id":"19881","zip":"10002","name":"WING ON PHARMACY, INC."}}, {"geometry": {"type":"Point","coordinates":[-73.945652, 40.808047]},"type":"Feature","properties": {"phone":"(212) 348-2199","address":"130 LENOX AVE., NEW YORK,NY 10026","id":"25164","zip":"10026","name":"CVS ALBANY, L.L.C."}}, {"geometry": {"type":"Point","coordinates":[-73.943918, 40.835811]},"type":"Feature","properties": {"phone":"(212) 927-0220","address":"3835 BROADWAY, NEW YORK,NY 10032","id":"21013","zip":"10032","name":"3817 BROADWAY PHARMACY INC."}}, {"geometry": {"type":"Point","coordinates":[-73.995993, 40.719014]},"type":"Feature","properties": {"phone":"(212) 625-9505","address":"215-7 GRAND STREET, NEW YORK,NY 10013","id":"28030","zip":"10013","name":"GRAND STREET PHARMACEUTICAL LLC"}}, {"geometry": {"type":"Point","coordinates":[-73.990366, 40.713918]},"type":"Feature","properties": {"phone":"(212) 227-7262","address":"159-A EAST BROADWAY, NEW YORK,NY 10002","id":"25161","zip":"10002","name":"GENERAL CARE PHARMACY, INC."}}, {"geometry": {"type":"Point","coordinates":[-73.992113, 40.7597]},"type":"Feature","properties": {"phone":"(212) 581-0602","address":"619 9TH AVE, NEW YORK,NY 10036","id":"28514","zip":"10036","name":"DUANE READE"}}, {"geometry": {"type":"Point","coordinates":[-73.986129, 40.769658]},"type":"Feature","properties": {"phone":"(212) 333-7330","address":"428 WEST 59TH STREET, NEW YORK,NY 10019","id":"20261","zip":"10019","name":"58TH STREET PHARMACY, INC."}}, {"geometry": {"type":"Point","coordinates":[-73.937395, 40.828784]},"type":"Feature","properties": {"phone":"(212) 491-5500","address":"2920 8TH AVENUE, NEW YORK,NY 10039","id":"26816","zip":"10039","name":"RIVERSIDE PHARMACY INC."}}, {"geometry": {"type":"Point","coordinates":[-73.964919, 40.801555]},"type":"Feature","properties": {"phone":"(212) 666-4800","address":"972 AMSTERDAM AVE, NEW YORK,NY 10025","id":"28454","zip":"10025","name":"VENUS PHARMACY &amp; SUPPLIES, CORP."}}, {"geometry": {"type":"Point","coordinates":[-73.989893, 40.767013]},"type":"Feature","properties": {"phone":"","address":"800 10TH AVENUE, NEW YORK,NY 10019,","id":"31936","zip":"10019","name":"CVS ALBANY, L.L.C."}}, {"geometry": {"type":"Point","coordinates":[-74.014948, 40.71695]},"type":"Feature","properties": {"phone":"(212) 945-4450","address":"325 NORTH END AVE, NEW YORK,NY 10282","id":"27469","zip":"10282","name":"DUANE READE"}}, {"geometry": {"type":"Point","coordinates":[-73.985089, 40.767672]},"type":"Feature","properties": {"phone":"(212) 315-0178","address":"353 W. 57TH STREET, NEW YORK,NY 10019","id":"29477","zip":"10019","name":"WALGREEN EASTERN CO., INC."}}, {"geometry": {"type":"Point","coordinates":[-73.979144, 40.760244]},"type":"Feature","properties": {"phone":"(212) 582-8525","address":"51 WEST 51ST STREET, NEW YORK,NY 10019","id":"18620","zip":"10019","name":"DUANE READE"}}, {"geometry": {"type":"Point","coordinates":[-73.949516, 40.809341]},"type":"Feature","properties": {"phone":"(212) 864-5431","address":"C/0 PHARMACY, 115 W. 125TH STREET, NEW YORK,NY 10027","id":"25489","zip":"10027","name":"CVS ALBANY, L.L.C."}}, {"geometry": {"type":"Point","coordinates":[-74.006012, 40.736662]},"type":"Feature","properties": {"phone":"(212) 541-9708","address":"585 HUDSON ST., NEW YORK,NY 10014","id":"18622","zip":"10014","name":"DUANE READE"}}, {"geometry": {"type":"Point","coordinates":[-73.973672, 40.754456]},"type":"Feature","properties": {"phone":"(212) 682-5338","address":"485 LEXINGTON AVE., NEW YORK,NY 10017","id":"18623","zip":"10017","name":"DUANE READE"}}, {"geometry": {"type":"Point","coordinates":[-74.005953, 40.708143]},"type":"Feature","properties": {"phone":"(212) 791-3801","address":"99 JOHN STREET, NEW YORK,NY 10038","id":"18624","zip":"10038","name":"DUANE READE"}}, {"geometry": {"type":"Point","coordinates":[-73.986422, 40.753878]},"type":"Feature","properties": {"phone":"(212) 768-0201","address":"1430 BROADWAY, NEW YORK,NY 10018","id":"18625","zip":"10018","name":"DUANE READE"}}, {"geometry": {"type":"Point","coordinates":[-73.981222, 40.750721]},"type":"Feature","properties": {"phone":"(212) 448-0025","address":"260 MADISON AVENUE, NEW YORK,NY 10017","id":"18626","zip":"10017","name":"DUANE READE"}}, {"geometry": {"type":"Point","coordinates":[-73.982874, 40.756507]},"type":"Feature","properties": {"phone":"(212) 221-3588","address":"1150 AVENUE OF AMERICAS, NEW YORK,NY 10036","id":"18627","zip":"10036","name":"DUANE READE"}}, {"geometry": {"type":"Point","coordinates":[-73.977812, 40.763259]},"type":"Feature","properties": {"phone":"(212) 586-2740","address":"1370 6TH AVENUE, NEW YORK,NY 10019","id":"25482","zip":"10019","name":"DUANE READE"}}, {"geometry": {"type":"Point","coordinates":[-73.943417, 40.825847]},"type":"Feature","properties": {"phone":"(212) 281-8300","address":"752 ST. NICHOLAS AVE, NEW YORK,NY 10031","id":"27351","zip":"10031","name":"LGDK LLC"}}, {"geometry": {"type":"Point","coordinates":[-73.943289, 40.806989]},"type":"Feature","properties": {"phone":"(212) 831-0200","address":"17 WEST 125TH ST, NEW YORK,NY 10027","id":"29773","zip":"10027","name":"M &amp; D PHARMACY, LLC"}}, {"geometry": {"type":"Point","coordinates":[-73.937934, 40.818296]},"type":"Feature","properties": {"phone":"(212) 368-5800","address":"565 LENOX AVE., NEW YORK,NY 10037","id":"30058","zip":"10037","name":"RX NOW II, INC."}}, {"geometry": {"type":"Point","coordinates":[-73.950189, 40.783707]},"type":"Feature","properties": {"phone":"(212) 838-0195","address":"1550 3RD AVE., NEW YORK,NY 10128","id":"30755","zip":"10128","name":"DUANE READE"}}, {"geometry": {"type":"Point","coordinates":[-73.982259, 40.746282]},"type":"Feature","properties": {"phone":"(212) 685-0500","address":"2 PARK AVE., NEW YORK,NY 10016","id":"21645","zip":"10016","name":"PARK IRMAT DRUG CORP."}}, {"geometry": {"type":"Point","coordinates":[-73.986062, 40.769061]},"type":"Feature","properties": {"phone":"(212) 245-0636","address":"1 COLUMBUS PL., NEW YORK,NY 10019","id":"23510","zip":"10019","name":"CVS ALBANY, L.L.C."}}, {"geometry": {"type":"Point","coordinates":[-73.997319, 40.716043]},"type":"Feature","properties": {"phone":"(212) 941-6480","address":"13-17 ELIZABETH ST., NEW YORK,NY 10013","id":"20841","zip":"10013","name":"MANNINGS PHARMACY CORPORATION"}}, {"geometry": {"type":"Point","coordinates":[-73.949917, 40.776446]},"type":"Feature","properties": {"phone":"(212) 879-1258","address":"1639 FIRST AVE., NEW YORK,NY 10028","id":"3491","zip":"10028","name":"CAPITOL CHEMISTS INC."}}, {"geometry": {"type":"Point","coordinates":[-73.954879, 40.780485]},"type":"Feature","properties": {"phone":"(212) 996-3000","address":"1294 LEXINGTON AVENUE, NEW YORK,NY 10128","id":"24499","zip":"10128","name":"CVS ALBANY, L.L.C."}}, {"geometry": {"type":"Point","coordinates":[-73.968605, 40.79139]},"type":"Feature","properties": {"phone":"(212) 222-4400","address":"691 COLUMBUS AVENUE, NEW YORK,NY 10025","id":"21082","zip":"10025","name":"731 PHARMACY CORP."}}, {"geometry": {"type":"Point","coordinates":[-73.932024, 40.851637]},"type":"Feature","properties": {"phone":"(212) 923-0077","address":"1494 ST. NICHOLAS AVE., NEW YORK,NY 10033","id":"19952","zip":"10033","name":"VIVA PHARMACY, INC."}}, {"geometry": {"type":"Point","coordinates":[-73.96344, 40.798487]},"type":"Feature","properties": {"phone":"(212) 663-7440","address":"916 COLUMBUS AVE., NEW YORK,NY 10025","id":"13409","zip":"10025","name":"COLUMBUS &amp; 103RD ST. DRUG CORP."}}, {"geometry": {"type":"Point","coordinates":[-74.001115, 40.718085]},"type":"Feature","properties": {"phone":"(212) 966-9239","address":"106-110 LAFAYETE ST., NEW YORK,NY 10013","id":"24994","zip":"10013","name":"CHOI &amp; TAM INC."}}, {"geometry": {"type":"Point","coordinates":[-73.992334, 40.730947]},"type":"Feature","properties": {"phone":"(646) 602-8274","address":"761 BROADWAY, NEW YORK,NY 10003","id":"24390","zip":"10003","name":"DUANE READE"}}, {"geometry": {"type":"Point","coordinates":[-73.951622, 40.782162]},"type":"Feature","properties": {"phone":"(212) 876-7016","address":"1622 THIRD AVE., NEW YORK,NY 10128","id":"23235","zip":"10128","name":"CVS ALBANY, L.L.C."}}, {"geometry": {"type":"Point","coordinates":[-73.974501, 40.758929]},"type":"Feature","properties": {"phone":"(212) 486-9543","address":"485 MADISON AVE., NEW YORK,NY 10022","id":"16198","zip":"10022","name":"NYCO DRUGS, INC."}}, {"geometry": {"type":"Point","coordinates":[-73.968496, 40.791688]},"type":"Feature","properties": {"phone":"(212) 864-4189","address":"700 COLUMBUS AVE., NEW YORK,NY 10025","id":"23755","zip":"10025","name":"DUANE READE"}}, {"geometry": {"type":"Point","coordinates":[-73.973524, 40.792696]},"type":"Feature","properties": {"phone":"(212) 787-2194","address":"2495 BROADWAY, NEW YORK,NY 10025","id":"29691","zip":"10025","name":"CVS ALBANY, L.L.C."}}, {"geometry": {"type":"Point","coordinates":[-73.921963, 40.867554]},"type":"Feature","properties": {"phone":"(212) 304-4646","address":"4915 BROADWAY, NEW YORK,NY 10034","id":"29975","zip":"10034","name":"INWOOD PHARMA INC."}}, {"geometry": {"type":"Point","coordinates":[-73.995731, 40.717108]},"type":"Feature","properties": {"phone":"(212) 966-6039","address":"86 BOWERY, NEW YORK,NY 10013","id":"29977","zip":"10013","name":"CT HEALTH CASTLE CORP."}}, {"geometry": {"type":"Point","coordinates":[-74.00091, 40.747136]},"type":"Feature","properties": {"phone":"(212) 807-0950","address":"227 9TH AVE., NEW YORK,NY 10011","id":"24849","zip":"10011","name":"NAMDOR INC."}}, {"geometry": {"type":"Point","coordinates":[-73.941324, 40.81309]},"type":"Feature","properties": {"phone":"","address":"480A LENOX AVE., NEW YORK,NY 10037,","id":"31208","zip":"10037","name":"LENOX TERRACE II LLC."}}, {"geometry": {"type":"Point","coordinates":[-73.937688, 40.848434]},"type":"Feature","properties": {"phone":"(212) 795-7455","address":"4197 BROADWAY, NEW YORK,NY 10033","id":"31755","zip":"10033","name":"IEFA LLC."}}, {"geometry": {"type":"Point","coordinates":[-73.931924, 40.857327]},"type":"Feature","properties": {"phone":"(212) 567-3384","address":"4480 BROADWAY, NEW YORK,NY 10040","id":"24844","zip":"10040","name":"ONE SOURCE PHARMACY SERVICES INC."}}, {"geometry": {"type":"Point","coordinates":[-73.986626, 40.733478]},"type":"Feature","properties": {"phone":"(212) 529-7140","address":"125-133 THIRD AVE., NEW YORK,NY 10003","id":"24842","zip":"10003","name":"DUANE READE"}}, {"geometry": {"type":"Point","coordinates":[-73.999663, 40.738267]},"type":"Feature","properties": {"phone":"(212) 741-3365","address":"29-33 7TH AVE., NEW YORK,NY 10011","id":"23607","zip":"10011","name":"DUANE READE"}}, {"geometry": {"type":"Point","coordinates":[-73.950418, 40.771375]},"type":"Feature","properties": {"phone":"(212) 472-5600","address":"1494 YORK AVE., NEW YORK,NY 10075","id":"21341","zip":"10075","name":"HEALTH WISE PHARMACY INC."}}, {"geometry": {"type":"Point","coordinates":[-73.948002, 40.825203]},"type":"Feature","properties": {"phone":"(212) 926-2801","address":"1714 AMSTERDAM AVE., NEW YORK,NY 10031","id":"17959","zip":"10031","name":"S &amp; Y DRUG, INC."}}, {"geometry": {"type":"Point","coordinates":[-73.923485, 40.866921]},"type":"Feature","properties": {"phone":"(212) 942-8785","address":"4873 BROADWAY, NEW YORK,NY 10034","id":"22920","zip":"10034","name":"TOTAL HEALTH &amp; BEAUTY PHARMACY INC."}}, {"geometry": {"type":"Point","coordinates":[-73.939449, 40.797595]},"type":"Feature","properties": {"phone":"(212) 831-1730","address":"210 EAST 116TH ST., NEW YORK,NY 10029","id":"25216","zip":"10029","name":"EAST END PHARMACY, INC."}}, {"geometry": {"type":"Point","coordinates":[-73.980063, 40.737532]},"type":"Feature","properties": {"phone":"(212) 683-0148","address":"331 E. 23RD. ST., NEW YORK,NY 10010","id":"22924","zip":"10010","name":"420 2ND AVE DRUG CORP."}}, {"geometry": {"type":"Point","coordinates":[-73.998544, 40.744936]},"type":"Feature","properties": {"phone":"(212) 243-4987","address":"246 8TH AVE., NEW YORK,NY 10011","id":"8530","zip":"10011","name":"NEW LONDON PHARMACY INC."}}, {"geometry": {"type":"Point","coordinates":[-73.941708, 40.834001]},"type":"Feature","properties": {"phone":"(212) 781-8888","address":"1988 AMSTERDAM AVE., NEW YORK,NY 10032","id":"31185","zip":"10032","name":"HEALTH RITE PHARMACY INC."}}, {"geometry": {"type":"Point","coordinates":[-73.966958, 40.764357]},"type":"Feature","properties": {"phone":"(212) 838-2500","address":"806 LEXINGTON AVE., NEW YORK,NY 10021","id":"21266","zip":"10021","name":"LEXINGTON CHEMISTS, INC."}}, {"geometry": {"type":"Point","coordinates":[-73.999955, 40.743595]},"type":"Feature","properties": {"phone":"(212) 691-9050","address":"197 8TH AVENUE, NEW YORK,NY 10011","id":"31226","zip":"10011","name":"WALGREEN EASTERN CO., INC."}}, {"geometry": {"type":"Point","coordinates":[-73.998274, 40.716494]},"type":"Feature","properties": {"phone":"(212) 285-0977","address":"77 MOTT ST., NEW YORK,NY 10013","id":"15718","zip":"10013","name":"YIN ON PHARMACY, INC."}}, {"geometry": {"type":"Point","coordinates":[-73.980338, 40.721586]},"type":"Feature","properties": {"phone":"(212) 254-7307","address":"273 EAST THIRD ST., NEW YORK,NY 10009","id":"25186","zip":"10009","name":"LOISAIDA RX, INC."}}, {"geometry": {"type":"Point","coordinates":[-73.947926, 40.795795]},"type":"Feature","properties": {"phone":"(212) 369-0700","address":"1636 MADISON AVE, NEW YORK,NY 10029","id":"27675","zip":"10029","name":"R.O.R. MADISON PHARMACY, INC"}}, {"geometry": {"type":"Point","coordinates":[-73.962387, 40.770814]},"type":"Feature","properties": {"phone":"(212) 737-1147","address":"1004 LEXINGTON AVE, NEW YORK,NY 10021","id":"27677","zip":"10021","name":"CLAYTON &amp; EDWARD CHEMISTS, INC"}}, {"geometry": {"type":"Point","coordinates":[-74.00639, 40.733977]},"type":"Feature","properties": {"phone":"(212) 741-7111","address":"523 HUDSON STREET, NEW YORK,NY 10014","id":"27671","zip":"10014","name":"BBRX2 LLC"}}, {"geometry": {"type":"Point","coordinates":[-73.976595, 40.722944]},"type":"Feature","properties": {"phone":"(212) 475-5315","address":"87-89 AVENUE D, NEW YORK,NY 10009","id":"22369","zip":"10009","name":"RITE AID OF NEW YORK, INC."}}, {"geometry": {"type":"Point","coordinates":[-73.937468, 40.810163]},"type":"Feature","properties": {"phone":"(646) 750-3744","address":"2095 MADISON AVE., NEW YORK,NY 10037","id":"31506","zip":"10037","name":"EAST HARLEM PHARMACY CORP."}}, {"geometry": {"type":"Point","coordinates":[-73.932817, 40.848988]},"type":"Feature","properties": {"phone":"(212) 543-2616","address":"565 W. 181 ST. ST., NEW YORK,NY 10033","id":"25953","zip":"10033","name":"181 PHARMACY INC."}}, {"geometry": {"type":"Point","coordinates":[-73.993719, 40.751355]},"type":"Feature","properties": {"phone":"(212) 244-4026","address":"460 8TH AVE., NEW YORK,NY 10001","id":"20981","zip":"10001","name":"DUANE READE"}}, {"geometry": {"type":"Point","coordinates":[-73.954452, 40.769957]},"type":"Feature","properties": {"phone":"(212) 535-7100","address":"1449 1ST AVENUE, NEW YORK,NY 10021","id":"29197","zip":"10021","name":"THIRD AVENUE DRUG CORP"}}, {"geometry": {"type":"Point","coordinates":[-73.97739, 40.764084]},"type":"Feature","properties": {"phone":"(212) 956-0464","address":"100 WEST 57TH STREET, NEW YORK,NY 10019","id":"20939","zip":"10019","name":"DUANE READE"}}, {"geometry": {"type":"Point","coordinates":[-73.949262, 40.82789]},"type":"Feature","properties": {"phone":"(212) 862-3315","address":"3586 BROADWAY, NEW YORK,NY 10031","id":"9097","zip":"10031","name":"FEIN'S ETHICAL PHARMACY CORP."}}, {"geometry": {"type":"Point","coordinates":[-74.003287, 40.740046]},"type":"Feature","properties": {"phone":"(212) 727-7979","address":"312 W. 14TH ST., NEW YORK,NY 10014","id":"24776","zip":"10014","name":"S.B.P. PHARMACY CORP."}}, {"geometry": {"type":"Point","coordinates":[-73.986932, 40.733397]},"type":"Feature","properties": {"phone":"(212) 598-0339","address":"196 THIRD AVE., NEW YORK,NY 10003","id":"23267","zip":"10003","name":"DUANE READE"}}, {"geometry": {"type":"Point","coordinates":[-73.940213, 40.835344]},"type":"Feature","properties": {"phone":"(212) 781-1011","address":"2039 AMSTERDAM AVE., NEW YORK,NY 10032","id":"22649","zip":"10032","name":"CITYDRUG &amp; SURGICAL, INC."}}, {"geometry": {"type":"Point","coordinates":[-73.956522, 40.777975]},"type":"Feature","properties": {"phone":"(212) 570-2710","address":"1235 LEXINGTON AVE, NEW YORK,NY 10028","id":"29238","zip":"10028","name":"DUANE READE"}}, {"geometry": {"type":"Point","coordinates":[-74.010554, 40.719282]},"type":"Feature","properties": {"phone":"(212) 406-3700","address":"352 GREENWICH ST., NEW YORK,NY 10013","id":"28834","zip":"10013","name":"DUANE READE"}}, {"geometry": {"type":"Point","coordinates":[-73.95059, 40.826474]},"type":"Feature","properties": {"phone":"(212) 281-2183","address":"3539 BROADWAY, NEW YORK,NY 10031","id":"22858","zip":"10031","name":"RITE AID OF NEW YORK, INC."}}, {"geometry": {"type":"Point","coordinates":[-73.954836, 40.77405]},"type":"Feature","properties": {"phone":"(212) 327-4757","address":"1535 2ND. AVE., NEW YORK,NY 10021","id":"22859","zip":"10021","name":"RITE AID OF NEW YORK, INC."}}, {"geometry": {"type":"Point","coordinates":[-73.985364, 40.722158]},"type":"Feature","properties": {"phone":"(212) 677-6688","address":"250 EAST HOUSTON STREET, NEW YORK,NY 10002","id":"26553","zip":"10002","name":"EVE &amp; STEVE PHARMACY, INC."}}, {"geometry": {"type":"Point","coordinates":[-73.985057, 40.759964]},"type":"Feature","properties": {"phone":"(212) 368-5511","address":"3750 BROADWAY, STORE #4, NEW YORK,NY 10032","id":"26550","zip":"10032","name":"ANDY PHARMACY INC."}}, {"geometry": {"type":"Point","coordinates":[-73.949897, 40.77156]},"type":"Feature","properties": {"phone":"(212) 879-8990","address":"1498 YORK AVE., NEW YORK,NY 10021","id":"24472","zip":"10021","name":"DUANE READE"}}, {"geometry": {"type":"Point","coordinates":[-74.011437, 40.70497]},"type":"Feature","properties": {"phone":"(212) 943-3690","address":"67 BROAD ST., NEW YORK,NY 10004","id":"18610","zip":"10004","name":"DUANE READE"}}, {"geometry": {"type":"Point","coordinates":[-73.989409, 40.730627]},"type":"Feature","properties": {"phone":"(212) 475-3563","address":"46 THIRD AVE., NEW YORK,NY 10003","id":"28121","zip":"10003","name":"DUANE READE"}}, {"geometry": {"type":"Point","coordinates":[-73.959689, 40.770705]},"type":"Feature","properties": {"phone":"(212) 744-2668","address":"1279 THIRD AVE., NEW YORK,NY 10021","id":"22240","zip":"10021","name":"DUANE READE"}}, {"geometry": {"type":"Point","coordinates":[-73.973504, 40.74764]},"type":"Feature","properties": {"phone":"(212) 599-7492","address":"300 EAST 39TH ST., NEW YORK,NY 10016","id":"25327","zip":"10016","name":"DUANE READE"}}, {"geometry": {"type":"Point","coordinates":[-74.005599, 40.715528]},"type":"Feature","properties": {"phone":"(212) 227-6168","address":"305 BROADWAY, NEW YORK,NY 10007","id":"18611","zip":"10007","name":"DUANE READE"}}, {"geometry": {"type":"Point","coordinates":[-73.996886, 40.742704]},"type":"Feature","properties": {"phone":"(212) 243-0129","address":"180 WEST 20TH ST., NEW YORK,NY 10011","id":"25328","zip":"10011","name":"DUANE READE"}}, {"geometry": {"type":"Point","coordinates":[-73.979705, 40.754834]},"type":"Feature","properties": {"phone":"(212) 687-8641","address":"535 5TH AVE., NEW YORK,NY 10017","id":"18613","zip":"10017","name":"DUANE READE"}}, {"geometry": {"type":"Point","coordinates":[-73.98403, 40.742994]},"type":"Feature","properties": {"phone":"(212) 213-9730","address":"401 PARK AVENUE SOUTH, NEW YORK,NY 10016","id":"18612","zip":"10016","name":"DUANE READE"}}, {"geometry": {"type":"Point","coordinates":[-73.926714, 40.864716]},"type":"Feature","properties": {"phone":"(212) 567-1331","address":"199 DYCKMAN STREET, NEW YORK,NY 10040","id":"26627","zip":"10040","name":"NMS DRUGS INC."}}, {"geometry": {"type":"Point","coordinates":[-73.972116, 40.76309]},"type":"Feature","properties": {"phone":"(212) 421-4880","address":"41 EAST 58TH ST., NEW YORK,NY 10022","id":"18617","zip":"10022","name":"DUANE READE"}}, {"geometry": {"type":"Point","coordinates":[-73.988614, 40.753592]},"type":"Feature","properties": {"phone":"(212) 221-8627","address":"525 7TH AVE., NEW YORK,NY 10018","id":"18616","zip":"10018","name":"DUANE READE"}}, {"geometry": {"type":"Point","coordinates":[-73.962784, 40.762496]},"type":"Feature","properties": {"phone":"(212) 355-5944","address":"1191 SECOND AVE., NEW YORK,NY 10021","id":"22144","zip":"10021","name":"DUANE READE"}}, {"geometry": {"type":"Point","coordinates":[-73.937952, 40.818272]},"type":"Feature","properties": {"phone":"(212) 281-7408","address":"523 LENOX AVE, NEW YORK,NY 10037","id":"27852","zip":"10037","name":"MALCOLM X PHARMACY CORP."}}, {"geometry": {"type":"Point","coordinates":[-73.937003, 40.844843]},"type":"Feature","properties": {"phone":"(212) 928-8082","address":"1280 ST. NICHOLAS AVE., NEW YORK,NY 10033","id":"22143","zip":"10033","name":"BIRAJ PHARMACY CORP."}}, {"geometry": {"type":"Point","coordinates":[-73.984828, 40.752821]},"type":"Feature","properties": {"phone":"(212) 398-9999","address":"55 WEST 39TH STREET, NEW YORK,NY 10018","id":"31978","zip":"10018","name":"SMART PHARMACY INC."}}, {"geometry": {"type":"Point","coordinates":[-73.980212, 40.783155]},"type":"Feature","properties": {"phone":"(212) 877-3480","address":"2201 BROADWAY, NEW YORK,NY 10024","id":"21514","zip":"10024","name":"R.G. DRUG CORP."}}, {"geometry": {"type":"Point","coordinates":[-73.976773, 40.743888]},"type":"Feature","properties": {"phone":"(212) 685-0784","address":"585 2ND. AVE., NEW YORK,NY 10016","id":"23786","zip":"10016","name":"DUANE READE"}}, {"geometry": {"type":"Point","coordinates":[-73.977895, 40.67093]},"type":"Feature","properties": {"phone":"(718) 369-6100","address":"189 7TH AVENUE, NEW YORK,NY 11215","id":"29737","zip":"11215","name":"MODERN CHEMIST, LLC, THE"}}, {"geometry": {"type":"Point","coordinates":[-74.002414, 40.730038]},"type":"Feature","properties": {"phone":"(212) 242-3033","address":"281 SIXTH AVENUE, NEW YORK,NY 10014","id":"27398","zip":"10014","name":"AVIGNONE CHEMISTS, LTD"}}, {"geometry": {"type":"Point","coordinates":[-74.015842, 40.714025]},"type":"Feature","properties": {"phone":"(845) 246-2886","address":"250 VESEY ST., NEW YORK,NY 10080","id":"26307","zip":"10080","name":"GENOVESE DRUG STORES, INC."}}, {"geometry": {"type":"Point","coordinates":[-73.940384, 40.820271]},"type":"Feature","properties": {"phone":"(212) 862-0505","address":"2454 ADAM CLAYTON, POWELL BLVD, NEW YORK,NY 10030","id":"29301","zip":"10030","name":"PHARMA CARE INC."}}, {"geometry": {"type":"Point","coordinates":[-73.94298, 40.822751]},"type":"Feature","properties": {"phone":"(212) 281-3480","address":"300 WEST 145TH STREET, NEW YORK,NY 10039","id":"27057","zip":"10039","name":"PATHMARK STORES, INC."}}, {"geometry": {"type":"Point","coordinates":[-74.006642, 40.709202]},"type":"Feature","properties": {"phone":"(212) 385-1131","address":"130 WILLIAM ST., NEW YORK,NY 10038","id":"24793","zip":"10038","name":"DUANE READE"}}, {"geometry": {"type":"Point","coordinates":[-73.940119, 40.82176]},"type":"Feature","properties": {"phone":"(212) 368-8100","address":"200-210 W. 145TH STREET, NEW YORK,NY 10039","id":"16953","zip":"10039","name":"J.W. EMBASSY CORP."}}, {"geometry": {"type":"Point","coordinates":[-73.943289, 40.806989]},"type":"Feature","properties": {"phone":"(212) 831-0200","address":"17 WEST 125TH ST., NEW YORK,NY 10027","id":"25606","zip":"10027","name":"HARLEM PHARMACY INC."}}, {"geometry": {"type":"Point","coordinates":[-73.988673, 40.736789]},"type":"Feature","properties": {"phone":"(646) 602-8237","address":"215 PARK AVENUE SOUTH, NEW YORK,NY 10003","id":"24609","zip":"10003","name":"CVS ALBANY, L.L.C"}}, {"geometry": {"type":"Point","coordinates":[-73.960024, 40.766504]},"type":"Feature","properties": {"phone":"(212) 794-8700","address":"1302 SECOND AVE., NEW YORK,NY 10021","id":"25135","zip":"10021","name":"HEALTHSOURCE PHARMACY, INC."}}, {"geometry": {"type":"Point","coordinates":[-74.001498, 40.741489]},"type":"Feature","properties": {"phone":"(212) 206-0059","address":"131 8TH AVE., NEW YORK,NY 10011","id":"29946","zip":"10011","name":"DUANE READE"}}, {"geometry": {"type":"Point","coordinates":[-74.00579, 40.714321]},"type":"Feature","properties": {"phone":"(212) 233-2742","address":"280 BROADWAY, NEW YORK,NY 10007","id":"25138","zip":"10007","name":"DUANE READE"}}, {"geometry": {"type":"Point","coordinates":[-73.97387, 40.78955]},"type":"Feature","properties": {"phone":"(212) 712-0818","address":"592 AMSTERDAM AVENUE, NEW YORK,NY 10024","id":"24479","zip":"10024","name":"WEST SIDE FAMILY PHARMACY, INC."}}, {"geometry": {"type":"Point","coordinates":[-73.999692, 40.738544]},"type":"Feature","properties": {"phone":"(212) 675-1697","address":"56 SEVENTH AVE & 14TH ST, NEW YORK,NY 10011","id":"22581","zip":"10011","name":"RITE AID OF NEW YORK, INC."}}, {"geometry": {"type":"Point","coordinates":[-73.993486, 40.713984]},"type":"Feature","properties": {"phone":"(212) 693-8866","address":"96 EAST BROADWAY, NEW YORK,NY 10002","id":"28788","zip":"10002","name":"LONGEVITY PHARMACY LLC"}}, {"geometry": {"type":"Point","coordinates":[-73.928934, 40.855589]},"type":"Feature","properties": {"phone":"(212) 923-3524","address":"1620 ST. NICHOLA AVE., NEW YORK,NY 10040","id":"28789","zip":"10040","name":"VIDA PHARMACY, INC."}}, {"geometry": {"type":"Point","coordinates":[-73.930807, 40.853308]},"type":"Feature","properties": {"phone":"(212) 795-5004","address":"1544 A ST. NICHOLAS AVE., NEW YORK,NY 10040","id":"17806","zip":"10040","name":"LA ALTAGRACIA PHARMACY, INC."}}, {"geometry": {"type":"Point","coordinates":[-73.982709, 40.771376]},"type":"Feature","properties": {"phone":"(212) 586-6749","address":"1889 BROADWAY, NEW YORK,NY 10023","id":"25030","zip":"10023","name":"DUANE READE"}}, {"geometry": {"type":"Point","coordinates":[-73.947834, 40.83046]},"type":"Feature","properties": {"phone":"(212) 491-2910","address":"3663 BROADWAY, NEW YORK,NY 10031","id":"31805","zip":"10031","name":"2000 NINOS INC."}}, {"geometry": {"type":"Point","coordinates":[-73.992714, 40.714403]},"type":"Feature","properties": {"phone":"(212) 966-8287","address":"2 ALLEN STREET, SUITE 1C/1D, NEW YORK,NY 10002","id":"31800","zip":"10002","name":"ALLEN STREET PHARMACY INC."}}, {"geometry": {"type":"Point","coordinates":[-73.971491, 40.760453]},"type":"Feature","properties": {"phone":"(212) 223-7037","address":"425 PARK AVE, NEW YORK,NY 10022","id":"27514","zip":"10022","name":"DUANE READE"}}, {"geometry": {"type":"Point","coordinates":[-73.942001, 40.837585]},"type":"Feature","properties": {"phone":"(212) 568-0975","address":"3898 BROADWAY, NEW YORK,NY 10032","id":"27458","zip":"10032","name":"3890 BROADWAY PHARMACY IV, INC"}}, {"geometry": {"type":"Point","coordinates":[-73.941855, 40.813204]},"type":"Feature","properties": {"phone":"(212) 694-5700","address":"471 LENOX AVE, NEW YORK,NY 10037","id":"29019","zip":"10037","name":"LIFE PHARMA II INC."}}, {"geometry": {"type":"Point","coordinates":[-73.994584, 40.736414]},"type":"Feature","properties": {"phone":"(212) 627-7315","address":"7 WEST 14TH ST., NEW YORK,NY 10011","id":"24928","zip":"10011","name":"METRO DRUGS 14TH ST. CORP."}}, {"geometry": {"type":"Point","coordinates":[-74.00291, 40.744283]},"type":"Feature","properties": {"phone":"(212) 255-8000","address":"154 NINTH AVE, NEW YORK,NY 10011","id":"30272","zip":"10011","name":"CHELSEA ROYAL CARE PHARMACY, INC."}}, {"geometry": {"type":"Point","coordinates":[-73.999915, 40.73838]},"type":"Feature","properties": {"phone":"(212) 255-6100","address":"56 SEVENTH AVE., NEW YORK,NY 10011","id":"30275","zip":"10011","name":"SEVENTH ELM DRUG CORP"}}, {"geometry": {"type":"Point","coordinates":[-73.939139, 40.815322]},"type":"Feature","properties": {"phone":"(212) 926-7500","address":"67 WEST 137TH STREET, NEW YORK,NY 10037","id":"29425","zip":"10037","name":"HARLEM STAR PHARMACY INC."}}, {"geometry": {"type":"Point","coordinates":[-73.998656, 40.73316]},"type":"Feature","properties": {"phone":"","address":"48 WEST 8TH STREET, NEW YORK,NY 10011,","id":"30375","zip":"10011","name":"BRENTWOOD PHARMACY LLC"}}, {"geometry": {"type":"Point","coordinates":[-73.987474, 40.714182]},"type":"Feature","properties": {"phone":"(212) 420-8642","address":"215 E. BROADWAY, NEW YORK,NY 10002","id":"20892","zip":"10002","name":"EAST RX CORP."}}, {"geometry": {"type":"Point","coordinates":[-73.95195, 40.824613]},"type":"Feature","properties": {"phone":"(212) 281-9410","address":"3481 BROADWAY, NEW YORK,NY 10031","id":"17113","zip":"10031","name":"DALIZA PHARMACY INC."}}, {"geometry": {"type":"Point","coordinates":[-73.986514, 40.730148]},"type":"Feature","properties": {"phone":"(212) 477-6400","address":"168 2ND AVENUE, NEW YORK,NY 10003","id":"31022","zip":"10003","name":"ABACUS PHARMACY INC."}}, {"geometry": {"type":"Point","coordinates":[-73.966787, 40.763907]},"type":"Feature","properties": {"phone":"(212) 838-6450","address":"799 LEXINGTON AVENUE, NEW YORK,NY 10065","id":"17119","zip":"10065","name":"TIMMERMANN APOTHECARIES, INC."}}, {"geometry": {"type":"Point","coordinates":[-73.945306, 40.786638]},"type":"Feature","properties": {"phone":"(212) 426-6484","address":"1938 SECOND AVENUE., NEW YORK,NY 10035","id":"25557","zip":"10035","name":"92 PHARMACY INC."}}, {"geometry": {"type":"Point","coordinates":[-73.93467, 40.85265]},"type":"Feature","properties": {"phone":"(212) 740-8500","address":"4329 BROADWAY, NEW YORK,NY 10033","id":"27473","zip":"10033","name":"SR PHARMACY INC"}}, {"geometry": {"type":"Point","coordinates":[-73.988155, 40.774561]},"type":"Feature","properties": {"phone":"(917) 441-5960","address":"80 WEST  END AVE., NEW YORK,NY 10023","id":"25552","zip":"10023","name":"GRISTEDES FOODS, INC."}}, {"geometry": {"type":"Point","coordinates":[-73.955922, 40.779762]},"type":"Feature","properties": {"phone":"(212) 996-5261","address":"125 EAST 86TH ST., NEW YORK,NY 10028","id":"25553","zip":"10028","name":"DUANE READE"}}, {"geometry": {"type":"Point","coordinates":[-73.962678, 40.80511]},"type":"Feature","properties": {"phone":"(212) 678-0636","address":"501 WEST 113TH ST., NEW YORK,NY 10025","id":"17529","zip":"10025","name":"LERIN DRUG CO., INC."}}, {"geometry": {"type":"Point","coordinates":[-73.926214, 40.866063]},"type":"Feature","properties": {"phone":"(212) 304-9582","address":"4785 BROADWAY, NEW YORK,NY 10034","id":"22829","zip":"10034","name":"TOWN DRUG AT BROADWAY INC."}}, {"geometry": {"type":"Point","coordinates":[-73.944257, 40.7879]},"type":"Feature","properties": {"phone":"(212) 831-1000","address":"1982 2ND AVENUE, NEW YORK,NY 10029","id":"24128","zip":"10029","name":"METROPOLITAN PHARMACY INC."}}, {"geometry": {"type":"Point","coordinates":[-73.99513, 40.739733]},"type":"Feature","properties": {"phone":"(212) 691-0952","address":"611 AVENUE OF AMERICAS, NEW YORK,NY 10011","id":"23783","zip":"10011","name":"DUANE READE"}}, {"geometry": {"type":"Point","coordinates":[-74.00246, 40.716508]},"type":"Feature","properties": {"phone":"(212) 571-4621","address":"111 WORTH ST., NEW YORK,NY 10013","id":"25994","zip":"10013","name":"DUANE READE"}}, {"geometry": {"type":"Point","coordinates":[-73.955576, 40.812748]},"type":"Feature","properties": {"phone":"(212) 665-6007","address":"449 W 125TH STREET, NEW YORK,NY 10026","id":"26778","zip":"10026","name":"MANAV II INC."}}, {"geometry": {"type":"Point","coordinates":[-73.942537, 40.78757]},"type":"Feature","properties": {"phone":"(212) 423-2042","address":"333 EAST 102ND STREET, NEW YORK,NY 10029","id":"26645","zip":"10029","name":"DUANE READE"}}, {"geometry": {"type":"Point","coordinates":[-73.986624, 40.734441]},"type":"Feature","properties": {"phone":"","address":"205 THIRD AVE, NEW YORK,NY 10003,","id":"31489","zip":"10003","name":"NATES PHARMACY CORP"}}, {"geometry": {"type":"Point","coordinates":[-74.016175, 40.710799]},"type":"Feature","properties": {"phone":"(212) 912-0555","address":"327 SOUTH END AVE., NEW YORK,NY 10280","id":"17898","zip":"10280","name":"BATTERY PARK PHARMACY INC."}}, {"geometry": {"type":"Point","coordinates":[-73.97079, 40.758607]},"type":"Feature","properties": {"phone":"(917) 369-8688","address":"630 LEXINGTON AVE., NEW YORK,NY 10022","id":"25249","zip":"10022","name":"CVS ALBANY, L.L.C."}}, {"geometry": {"type":"Point","coordinates":[-73.937952, 40.818272]},"type":"Feature","properties": {"phone":"(212) 281-7408","address":"523 LENOX AVENUE, NEW YORK,NY 10037","id":"31252","zip":"10037","name":"LENOX DRUG CORP"}}, {"geometry": {"type":"Point","coordinates":[-74.001288, 40.741207]},"type":"Feature","properties": {"phone":"(212) 807-8798","address":"126 EIGHTH AVE., NEW YORK,NY 10011","id":"24813","zip":"10011","name":"PROCARE PHARMACY, L.L.C"}}, {"geometry": {"type":"Point","coordinates":[-74.000348, 40.739047]},"type":"Feature","properties": {"phone":"","address":"215 WEST 14TH ST., NEW YORK,NY 10011,","id":"31627","zip":"10011","name":"NYC CHELSEA PHARMACY INC."}}, {"geometry": {"type":"Point","coordinates":[-73.946823, 40.810065]},"type":"Feature","properties": {"phone":"","address":"165 WEST 127TH STREET, #10, NEW YORK,NY 10027,","id":"31259","zip":"10027","name":"FORUM DRUGS INC."}}, {"geometry": {"type":"Point","coordinates":[-73.934478, 40.849922]},"type":"Feature","properties": {"phone":"(212) 923-6912","address":"617 WEST 181ST STREET, NEW YORK,NY 10033","id":"23737","zip":"10033","name":"DUANE READE"}}, {"geometry": {"type":"Point","coordinates":[-73.982506, 40.73854]},"type":"Feature","properties": {"phone":"(212) 532-0022","address":"214 EAST 23RD. STREET, NEW YORK,NY 10010","id":"31324","zip":"10010","name":"GRAMERCY DRUGS INC."}}, {"geometry": {"type":"Point","coordinates":[-74.004734, 40.737495]},"type":"Feature","properties": {"phone":"(212) 929-7527","address":"302 WEST 12TH ST., NEW YORK,NY 10014","id":"20541","zip":"10014","name":"J.D. PHARMACY, INC."}}, {"geometry": {"type":"Point","coordinates":[-73.974738, 40.744117]},"type":"Feature","properties": {"phone":"(212) 545-9393","address":"324 EAST 34TH ST, NEW YORK,NY 10016","id":"28288","zip":"10016","name":"NATURES CURE PHARMACY INC."}}, {"geometry": {"type":"Point","coordinates":[-73.977602, 40.786614]},"type":"Feature","properties": {"phone":"(212) 501-8355","address":"2307 BROADWAY, NEW YORK,NY 10025","id":"22353","zip":"10025","name":"DUANE READE"}}, {"geometry": {"type":"Point","coordinates":[-73.998316, 40.735041]},"type":"Feature","properties": {"phone":"(212) 477-0762","address":"446 6TH AVE., NEW YORK,NY 10011","id":"22526","zip":"10011","name":"UMA PHARMACY CORP."}}, {"geometry": {"type":"Point","coordinates":[-73.967065, 40.804094]},"type":"Feature","properties": {"phone":"(212) 663-3135","address":"2833 BROADWAY, NEW YORK,NY 10025","id":"22811","zip":"10025","name":"RITE AID OF NEW YORK, INC."}}, {"geometry": {"type":"Point","coordinates":[-73.990257, 40.734279]},"type":"Feature","properties": {"phone":"(212) 358-8206","address":"1 UNION SQUARE SOUTH, NEW YORK,NY 10003","id":"23639","zip":"10003","name":"DUANE READE"}}, {"geometry": {"type":"Point","coordinates":[-73.983414, 40.776154]},"type":"Feature","properties": {"phone":"(212) 877-6390","address":"181 AMSTERDAM AVE., NEW YORK,NY 10023","id":"21250","zip":"10023","name":"MNK PHARMACY INC."}}, {"geometry": {"type":"Point","coordinates":[-73.923437, 40.864318]},"type":"Feature","properties": {"phone":"(212) 567-1448","address":"145 SHERMAN AVE., NEW YORK,NY 10034","id":"30989","zip":"10034","name":"SANTA ISABEL PHARMACY INC."}}, {"geometry": {"type":"Point","coordinates":[-73.980036, 40.776145]},"type":"Feature","properties": {"phone":"(212) 877-3090","address":"104 W. 70TH STREET, NEW YORK,NY 10023","id":"4240","zip":"10023","name":"TEE VAL PHARMACY, INC."}}, {"geometry": {"type":"Point","coordinates":[-73.9763, 40.740354]},"type":"Feature","properties": {"phone":"(212) 696-2044","address":"483 FIRST AVE., NEW YORK,NY 10016","id":"25603","zip":"10016","name":"PHARMACARE SERVICES INC."}}, {"geometry": {"type":"Point","coordinates":[-73.962346, 40.770034]},"type":"Feature","properties": {"phone":"(212) 682-2817","address":"100 PARK AVE., NEW YORK,NY 10017","id":"21483","zip":"10017","name":"ROBELEN CHEMISTS, INC."}}, {"geometry": {"type":"Point","coordinates":[-73.957707, 40.765633]},"type":"Feature","properties": {"phone":"(212) 988-4500","address":"1273 FIRST AVE., NEW YORK,NY 10021","id":"30951","zip":"10021","name":"CITY DRUGS NY CORP."}}, {"geometry": {"type":"Point","coordinates":[-73.936736, 40.850607]},"type":"Feature","properties": {"phone":"(212) 781-0707","address":"719 WEST 181ST. ST., NEW YORK,NY 10033","id":"25669","zip":"10033","name":"HEIGHTS PHARMACY, INC."}}, {"geometry": {"type":"Point","coordinates":[-73.948097, 40.808068]},"type":"Feature","properties": {"phone":"(212) 865-0295","address":"157 WEST 124TH ST., NEW YORK,NY 10027","id":"28767","zip":"10027","name":"124 RX CORP."}}, {"geometry": {"type":"Point","coordinates":[-73.977449, 40.752531]},"type":"Feature","properties": {"phone":"(212) 972-8052","address":"26 GRAND CENTRAL TERMINAL, NEW YORK,NY 10017","id":"24606","zip":"10017","name":"RITE AID OF NEW YORK, INC."}}, {"geometry": {"type":"Point","coordinates":[-73.996273, 40.719229]},"type":"Feature","properties": {"phone":"","address":"206 GRAND ST., NEW YORK,NY 10013,","id":"30813","zip":"10013","name":"WELLNESS RX PHARMACY INC."}}, {"geometry": {"type":"Point","coordinates":[-73.963988, 40.756571]},"type":"Feature","properties": {"phone":"(212) 755-6632","address":"988 FIRST AVENUE, NEW YORK,NY 10028","id":"14934","zip":"10028","name":"RON-AN PHARMACY, INC."}}, {"geometry": {"type":"Point","coordinates":[-73.962086, 40.764039]},"type":"Feature","properties": {"phone":"(212) 752-7703","address":"1223 SECOND AVE., NEW YORK,NY 10065","id":"24435","zip":"10065","name":"CVS ALBANY, L.L.C."}}, {"geometry": {"type":"Point","coordinates":[-73.993466, 40.733268]},"type":"Feature","properties": {"phone":"(212) 473-0277","address":"74 UNIVERSITY PLACE, NEW YORK,NY 10003","id":"26955","zip":"10003","name":"JVJ PHARMACY INC."}}, {"geometry": {"type":"Point","coordinates":[-73.984391, 40.764635]},"type":"Feature","properties": {"phone":"(212) 582-3463","address":"900 8TH AVE., NEW YORK,NY 10019","id":"26950","zip":"10019","name":"DUANE READE"}}, {"geometry": {"type":"Point","coordinates":[-73.99242, 40.717574]},"type":"Feature","properties": {"phone":"(212) 274-0009","address":"289 GRAND ST., NEW YORK,NY 10002","id":"22511","zip":"10002","name":"RX PLUS PHARMACY CORP."}}, {"geometry": {"type":"Point","coordinates":[-73.997633, 40.715481]},"type":"Feature","properties": {"phone":"(212) 766-3773","address":"4 ELIZABETH ST., NEW YORK,NY 10013","id":"24143","zip":"10013","name":"UNITED HEALTH PHARMACY INC."}}, {"geometry": {"type":"Point","coordinates":[-73.94348, 40.841206]},"type":"Feature","properties": {"phone":"(212) 305-8684","address":"OF NEW YORK, THE, 161 FT. WASHINGTON AVE, NEW YORK,NY 10032","id":"23275","zip":"10032","name":"TRUSTEES OF COLUMBIA UNIVERSITY IN THE CITY"}}, {"geometry": {"type":"Point","coordinates":[-73.928389, 40.856637]},"type":"Feature","properties": {"phone":"(212) 568-4000","address":"1654 ST. NICHOLAS AVE, NEW YORK,NY 10040","id":"24282","zip":"10040","name":"HASHMAT PHARMACY, INC."}}, {"geometry": {"type":"Point","coordinates":[-73.969958, 40.793999]},"type":"Feature","properties": {"phone":"(212) 280-0596","address":"743 AMSTERDAM AVE, NEW YORK,NY 10025","id":"24179","zip":"10025","name":"CVS ALBANY, L.L.C."}}, {"geometry": {"type":"Point","coordinates":[-73.935848, 40.846482]},"type":"Feature","properties": {"phone":"(212) 795-3033","address":"1329 ST. NICHOLAS AVE, NEW YORK,NY 10032","id":"29148","zip":"10032","name":"PARVJAYRON CORP."}}, {"geometry": {"type":"Point","coordinates":[-73.958981, 40.763915]},"type":"Feature","properties": {"phone":"(212) 838-1490","address":"1219 1ST AVE., NEW YORK,NY 10021","id":"9886","zip":"10021","name":"TOWER CHEMISTS INC."}}, {"geometry": {"type":"Point","coordinates":[-73.967273, 40.763224]},"type":"Feature","properties": {"phone":"(212) 829-0651","address":"773 LEXINGTON AVE., NEW YORK,NY 10021","id":"24722","zip":"10021","name":"DUANE READE"}}, {"geometry": {"type":"Point","coordinates":[-73.995447, 40.721621]},"type":"Feature","properties": {"phone":"(212) 226-1415","address":"208 MOTT ST., NEW YORK,NY 10012","id":"18828","zip":"10012","name":"DYNASTY DRUG &amp; TRADING, INC."}}, {"geometry": {"type":"Point","coordinates":[-73.946511, 40.807709]},"type":"Feature","properties": {"phone":"(212) 663-4391","address":"279-283 W. 125TH ST., NEW YORK,NY 10027","id":"22198","zip":"10027","name":"DUANE READE"}}, {"geometry": {"type":"Point","coordinates":[-73.99852, 40.72861]},"type":"Feature","properties": {"phone":"(212) 253-7459","address":"532 LAGUARDIA PLACE, SUITE 313, NEW YORK,NY 10012","id":"25071","zip":"10012","name":"METROPOLITAN PHARMACY SERVICES INC."}}, {"geometry": {"type":"Point","coordinates":[-73.986153, 40.756233]},"type":"Feature","properties": {"phone":"(646) 366-8047","address":"4 TIMES SQUARE, NEW YORK,NY 10036","id":"25179","zip":"10036","name":"DUANE READE"}}, {"geometry": {"type":"Point","coordinates":[-73.971951, 40.749951]},"type":"Feature","properties": {"phone":"(646) 918-7363","address":"800 2ND AVE, NEW YORK,NY 10017","id":"30598","zip":"10017","name":"MAKSOUD RX CORP."}}, {"geometry": {"type":"Point","coordinates":[-73.957199, 40.777548]},"type":"Feature","properties": {"phone":"(212) 369-6000","address":"1226 LEXINGTON AVE., NEW YORK,NY 10028","id":"25078","zip":"10028","name":"CALIGOR RX INC."}}, {"geometry": {"type":"Point","coordinates":[-73.997523, 40.713619]},"type":"Feature","properties": {"phone":"(212) 966-7887","address":"2 EAST BROADWAY, NEW YORK,NY 10038","id":"29191","zip":"10038","name":"FOREVER HEALTH PHARMACY INC."}}, {"geometry": {"type":"Point","coordinates":[-73.997869, 40.715595]},"type":"Feature","properties": {"phone":"(212) 219-8116","address":"62 BAYARD ST., NEW YORK,NY 10013","id":"22079","zip":"10013","name":"BAYARD L.C. PHARMACY CORPORATION"}}, {"geometry": {"type":"Point","coordinates":[-73.967616, 40.801538]},"type":"Feature","properties": {"phone":"(212) 678-7893","address":"2760-62 BROADWAY, NEW YORK,NY 10025","id":"24318","zip":"10025","name":"DUANE READE"}}, {"geometry": {"type":"Point","coordinates":[-73.950257, 40.783624]},"type":"Feature","properties": {"phone":"(212) 348-7400","address":"1675 THIRD AVE., NEW YORK,NY 10128","id":"25376","zip":"10128","name":"DUANE READE"}}, {"geometry": {"type":"Point","coordinates":[-73.938338, 40.796585]},"type":"Feature","properties": {"phone":"(212) 876-8300","address":"249 EAST 115TH STREET, NEW YORK,NY 10029","id":"26821","zip":"10029","name":"SECOND AVE PHARMACY INC."}}, {"geometry": {"type":"Point","coordinates":[-73.949648, 40.781367]},"type":"Feature","properties": {"phone":"(718) 445-5400","address":"1751 SECOND AVENUE, NEW YORK,NY 10128","id":"24314","zip":"10128","name":"EAST SIDE PHARMACY, INC."}}, {"geometry": {"type":"Point","coordinates":[-73.938707, 40.813166]},"type":"Feature","properties": {"phone":"(212) 234-2050","address":"20 WEST 135TH STREET, NEW YORK,NY 10037","id":"25372","zip":"10037","name":"LENOX TERRACE PHARMACY, INC."}}, {"geometry": {"type":"Point","coordinates":[-73.950141, 40.812108]},"type":"Feature","properties": {"phone":"(212) 749-6626","address":"2381 FREDERICK DOUGLAS, BLVD., NEW YORK,NY 10027","id":"31926","zip":"10027","name":"DJ DRUGS &amp; SURGICALS INC."}}, {"geometry": {"type":"Point","coordinates":[-73.995447, 40.721621]},"type":"Feature","properties": {"phone":"(212) 226-1415","address":"208 MOTT ST., NEW YORK,NY 10012","id":"31924","zip":"10012","name":"NOLITA DRUG CORPORATION"}}, {"geometry": {"type":"Point","coordinates":[-73.984353, 40.761379]},"type":"Feature","properties": {"phone":"(212) 586-0374","address":"1627 BROADWAY, NEW YORK,NY 10019","id":"18790","zip":"10019","name":"DUANE READE"}}, {"geometry": {"type":"Point","coordinates":[-73.992119, 40.750434]},"type":"Feature","properties": {"phone":"(212) 279-3232","address":"11 PENN PLAZA, NEW YORK,NY 10001","id":"27411","zip":"10001","name":"MAIL MED CORP."}}, {"geometry": {"type":"Point","coordinates":[-74.000018, 40.73291]},"type":"Feature","properties": {"phone":"(212) 674-5357","address":"378 6TH AVE., NEW YORK,NY 10011","id":"22587","zip":"10011","name":"DUANE READE"}}, {"geometry": {"type":"Point","coordinates":[-73.93697, 40.802344]},"type":"Feature","properties": {"phone":"(212) 289-7800","address":"2258 THIRD AVENUE, NEW YORK,NY 10035","id":"31845","zip":"10035","name":"GOTHAM PHARMACY INC."}}, {"geometry": {"type":"Point","coordinates":[-73.936988, 40.849281]},"type":"Feature","properties": {"phone":"(212) 781-6314","address":"4229 BROADWAY, NEW YORK,NY 10033","id":"18799","zip":"10033","name":"BRISELY PHARMACY, INC."}}, {"geometry": {"type":"Point","coordinates":[-73.996792, 40.713594]},"type":"Feature","properties": {"phone":"(212) 965-8882","address":"26 E. BROADWAY, NEW YORK,NY 10002","id":"30509","zip":"10002","name":"ABC PHARMACY V CORP."}}, {"geometry": {"type":"Point","coordinates":[-73.963988, 40.756571]},"type":"Feature","properties": {"phone":"(212) 755-6632","address":"988 FIRST AVE., NEW YORK,NY 10022","id":"30135","zip":"10022","name":"CORBY PHARMA INC."}}, {"geometry": {"type":"Point","coordinates":[-73.976407, 40.763922]},"type":"Feature","properties": {"phone":"(212) 956-6000","address":"40 WEST 57TH STREET, NEW YORK,NY 10019","id":"27202","zip":"10019","name":"Z CHEMISTS, LLC"}}, {"geometry": {"type":"Point","coordinates":[-73.979022, 40.759242]},"type":"Feature","properties": {"phone":"(212) 757-9335","address":"30 ROCKEFELLER CENTER, NEW YORK,NY 10020","id":"21812","zip":"10020","name":"VALUE DRUGS ROCK INC."}}, {"geometry": {"type":"Point","coordinates":[-73.978033, 40.721197]},"type":"Feature","properties": {"phone":"(212) 677-7335","address":"360 E. 4TH ST., NEW YORK,NY 10009","id":"18167","zip":"10009","name":"A.P.K.G. PHARMACY INC."}}, {"geometry": {"type":"Point","coordinates":[-73.960789, 40.766892]},"type":"Feature","properties": {"phone":"(212) 772-0104","address":"1299 SECOND AVE., NEW YORK,NY 10021","id":"21855","zip":"10021","name":"GENOVESE DRUG STORES, INC."}}, {"geometry": {"type":"Point","coordinates":[-73.999271, 40.738808]},"type":"Feature","properties": {"phone":"(212) 243-2446","address":"77 7TH AVENUE, NEW YORK,NY 10011","id":"24825","zip":"10011","name":"DUANE READE"}}, {"geometry": {"type":"Point","coordinates":[-73.975274, 40.749918]},"type":"Feature","properties": {"phone":"(212) 682-3191","address":"630 3RD AVENUE, NEW YORK,NY 10017","id":"24824","zip":"10017","name":"DUANE READE"}}, {"geometry": {"type":"Point","coordinates":[-73.930997, 40.853052]},"type":"Feature","properties": {"phone":"(212) 927-5570","address":"1538 ST. NICHOLAS AVE., NEW YORK,NY 10033","id":"30285","zip":"10033","name":"TWIN PHARMACY CORP"}}, {"geometry": {"type":"Point","coordinates":[-73.965499, 40.76569]},"type":"Feature","properties": {"phone":"(212) 734-5678","address":"855 LEXINGTON AVE., NEW YORK,NY 10021","id":"3484","zip":"10021","name":"CAMBRIDGE CHEMISTS INC."}}, {"geometry": {"type":"Point","coordinates":[-73.983652, 40.762483]},"type":"Feature","properties": {"phone":"(212) 957-4680","address":"1657 BROADWAY, NEW YORK,NY 10119","id":"30980","zip":"10119","name":"DUANE READE"}}, {"geometry": {"type":"Point","coordinates":[-74.005781, 40.734346]},"type":"Feature","properties": {"phone":"(646) 486-1048","address":"534 HUDSON ST., NEW YORK,NY 10014","id":"24542","zip":"10014","name":"RITE AID OF NEW YORK, INC."}}, {"geometry": {"type":"Point","coordinates":[-73.982908, 40.767363]},"type":"Feature","properties": {"phone":"(212) 265-2302","address":"4 COLUMBUS CIRCLE, NEW YORK,NY 10019","id":"25457","zip":"10019","name":"DUANE READE"}}, {"geometry": {"type":"Point","coordinates":[-73.921963, 40.867554]},"type":"Feature","properties": {"phone":"(212) 304-4646","address":"4915 BROADWAY #3,4, NEW YORK,NY 10034","id":"24544","zip":"10034","name":"INWOOD PHARMACY, INC."}}, {"geometry": {"type":"Point","coordinates":[-73.988113, 40.74863]},"type":"Feature","properties": {"phone":"(212) 560-9811","address":"1270 BROADWAY, NEW YORK,NY 10001","id":"24980","zip":"10001","name":"DUANE READE"}}, {"geometry": {"type":"Point","coordinates":[-73.95387, 40.821994]},"type":"Feature","properties": {"phone":"(212) 368-3130","address":"3397 BROADWAY, NEW YORK,NY 10031","id":"15501","zip":"10031","name":"LENDA PHARMACY, INC."}}, {"geometry": {"type":"Point","coordinates":[-73.989714, 40.733887]},"type":"Feature","properties": {"phone":"(212) 677-0054","address":"145 FOURTH AVE., NEW YORK,NY 10003","id":"25100","zip":"10003","name":"WALGREEN EASTERN CO., INC."}}, {"geometry": {"type":"Point","coordinates":[-73.92733, 40.860812]},"type":"Feature","properties": {"phone":"(212) 942-5050","address":"102 NAGLE AVE., NEW YORK,NY 10040","id":"17397","zip":"10040","name":"3-9 DRUGS, INC."}}, {"geometry": {"type":"Point","coordinates":[-73.965997, 40.759774]},"type":"Feature","properties": {"phone":"(212) 794-8700","address":"235 EAST 57TH STREET, NEW YORK,NY 10022","id":"27524","zip":"10022","name":"HEALTHSOURCE PHARMACY III, INC"}}, {"geometry": {"type":"Point","coordinates":[-73.938465, 40.846813]},"type":"Feature","properties": {"phone":"(212) 568-1020","address":"4157 BROADWAY, NEW YORK,NY 10033","id":"29124","zip":"10033","name":"CUREWELL DRUGS INC."}}, {"geometry": {"type":"Point","coordinates":[-73.942939, 40.822007]},"type":"Feature","properties": {"phone":"(212) 234-0300","address":"2703 FREDERICK DOUGLAS, BLVD., NEW YORK,NY 10030","id":"31665","zip":"10030","name":"BELLEPLAINE PHARMACY INC."}}, {"geometry": {"type":"Point","coordinates":[-73.931361, 40.852063]},"type":"Feature","properties": {"phone":"(917) 521-7814","address":"1510 ST NICHOLAS AVE, NEW YORK,NY 10033","id":"24385","zip":"10033","name":"RITE AID OF NEW YORK, INC."}}, {"geometry": {"type":"Point","coordinates":[-74.001648, 40.730699]},"type":"Feature","properties": {"phone":"(212) 255-5054","address":"307 SIXTH AVENUE, NEW YORK,NY 10014","id":"24263","zip":"10014","name":"CVS ALBANY, L.L.C."}}, {"geometry": {"type":"Point","coordinates":[-73.98377, 40.7377]},"type":"Feature","properties": {"phone":"(212) 677-4677","address":"275 THIRD AVENUE, NEW YORK,NY 10010","id":"24262","zip":"10010","name":"CVS ALBANY, L.L.C."}}, {"geometry": {"type":"Point","coordinates":[-73.945472, 40.83477]},"type":"Feature","properties": {"phone":"(212) 234-1800","address":"11 EDWARD MORGAN PLACE, NEW YORK,NY 10032","id":"29684","zip":"10032","name":"158 RX CORP."}}, {"geometry": {"type":"Point","coordinates":[-73.943648, 40.807171]},"type":"Feature","properties": {"phone":"(212) 828-1772","address":"35-45 WEST 125TH ST., NEW YORK,NY 10027","id":"24267","zip":"10027","name":"RITE AID OF NEW YORK, INC."}}, {"geometry": {"type":"Point","coordinates":[-73.961111, 40.76902]},"type":"Feature","properties": {"phone":"(212) 249-1050","address":"1229 THIRD AVE., NEW YORK,NY 10021","id":"24266","zip":"10021","name":"EVEREADY DRUGS LLC"}}, {"geometry": {"type":"Point","coordinates":[-73.967924, 40.797502]},"type":"Feature","properties": {"phone":"(212) 678-0084","address":"850 AMSTERDAM AVENUE, NEW YORK,NY 10025","id":"29680","zip":"10025","name":"RYAN DRUGS, LLC"}}, {"geometry": {"type":"Point","coordinates":[-73.982293, 40.731799]},"type":"Feature","properties": {"phone":"(212) 254-1454","address":"253 FIRST AVENUE, NEW YORK,NY 10003","id":"24264","zip":"10003","name":"CVS ALBANY, L.L.C."}}, {"geometry": {"type":"Point","coordinates":[-73.946823, 40.810065]},"type":"Feature","properties": {"phone":"(212) 222-2340","address":"165 W. 127TH STREET, UNIT 10, NEW YORK,NY 10027","id":"26168","zip":"10027","name":"AKSHAR HEALTH CORP."}}, {"geometry": {"type":"Point","coordinates":[-73.963921, 40.756916]},"type":"Feature","properties": {"phone":"(212) 310-0111","address":"1000 FIRST AVE, NEW YORK,NY 10022","id":"30612","zip":"10022","name":"HEALTHSOURCE PHARMACY III B INC."}}, {"geometry": {"type":"Point","coordinates":[-73.919856, 40.866156]},"type":"Feature","properties": {"phone":"(212) 567-1115","address":"232A SHERMAN AVENUE, NEW YORK,NY 10034","id":"26160","zip":"10034","name":"GOOD CARE PHARMACY INC."}}, {"geometry": {"type":"Point","coordinates":[-73.983478, 40.746821]},"type":"Feature","properties": {"phone":"(212) 213-2444","address":"161 MADISON AVE., NEW YORK,NY 10016","id":"29513","zip":"10016","name":"MIDTOWN EAST PHARMACY &amp; SURGICAL LLC"}}, {"geometry": {"type":"Point","coordinates":[-73.954062, 40.821727]},"type":"Feature","properties": {"phone":"(917) 816-5660","address":"3387 BROADWAY, NEW YORK,NY 10031","id":"31217","zip":"10031","name":"DUANE READE"}}, {"geometry": {"type":"Point","coordinates":[-73.98752, 40.771597]},"type":"Feature","properties": {"phone":"(212) 787-2903","address":"210-20 AMSTERDAM AVE., NEW YORK,NY 10023","id":"22618","zip":"10023","name":"RITE AID OF NEW YORK, INC."}}, {"geometry": {"type":"Point","coordinates":[-73.987474, 40.714182]},"type":"Feature","properties": {"phone":"(212) 420-8642","address":"215 EAST BROADWAY, NEW YORK,NY 10002","id":"31564","zip":"10002","name":"EAST BROADWAY DRUGS CORP."}}, {"geometry": {"type":"Point","coordinates":[-73.989744, 40.757343]},"type":"Feature","properties": {"phone":"(212) 273-0889","address":"625 8TH AVENUE, NEW YORK,NY 10018","id":"24181","zip":"10018","name":"DUANE READE"}}, {"geometry": {"type":"Point","coordinates":[-73.970063, 40.788791]},"type":"Feature","properties": {"phone":"(212) 724-4270","address":"609-B COLUMBUS AVENUE, NEW YORK,NY 10024","id":"24185","zip":"10024","name":"DUANE READE"}}, {"geometry": {"type":"Point","coordinates":[-73.978956, 40.783731]},"type":"Feature","properties": {"phone":"","address":"215 WEST 79TH ST., NEW YORK,NY 10024,","id":"31405","zip":"10024","name":"79TH STREET PHARMACY, INC."}}, {"geometry": {"type":"Point","coordinates":[-73.956254, 40.818736]},"type":"Feature","properties": {"phone":"(212) 281-0488","address":"3293 BROADWAY, NEW YORK,NY 10027","id":"26430","zip":"10027","name":"HAMILTON PHARMACY INC."}}, {"geometry": {"type":"Point","coordinates":[-73.968113, 40.763037]},"type":"Feature","properties": {"phone":"(212) 838-6765","address":"131 EAST 60TH ST., NEW YORK,NY 10022","id":"9990","zip":"10022","name":"BPB DRUGS, INC."}}, {"geometry": {"type":"Point","coordinates":[-73.937252, 40.855016]},"type":"Feature","properties": {"phone":"(212) 568-5511","address":"593 FT. WASHINGTON AVE., NEW YORK,NY 10033","id":"22914","zip":"10033","name":"MELLAU PHARMACY INC."}}, {"geometry": {"type":"Point","coordinates":[-73.987778, 40.770603]},"type":"Feature","properties": {"phone":"(212) 581-5527","address":"4 AMSTERDAM AVE., NEW YORK,NY 10023","id":"23570","zip":"10023","name":"DUANE READE"}}, {"geometry": {"type":"Point","coordinates":[-73.95038, 40.776976]},"type":"Feature","properties": {"phone":"0","address":"340 EAST 86 ST., NEW YORK,NY 10028","id":"30789","zip":"10028","name":"TISANE PHARMACY LLC"}}, {"geometry": {"type":"Point","coordinates":[-73.950621, 40.78135]},"type":"Feature","properties": {"phone":"(212) 534-9244","address":"1619 THIRD AVE., NEW YORK,NY 10128","id":"25191","zip":"10128","name":"KINGS THIRD AVE. PHARMACY, INC."}}, {"geometry": {"type":"Point","coordinates":[-73.991306, 40.765059]},"type":"Feature","properties": {"phone":"(212) 581-6010","address":"746 10TH AVE, NEW YORK,NY 10019","id":"16867","zip":"10019","name":"AHORRE DRUG CORP."}}, {"geometry": {"type":"Point","coordinates":[-73.94747, 40.825735]},"type":"Feature","properties": {"phone":"(212) 694-6666","address":"1728 AMSTERDAM AVE, NEW YORK,NY 10031","id":"30615","zip":"10031","name":"UPPER MANHATTAN PHARMACY, INC."}}, {"geometry": {"type":"Point","coordinates":[-73.97931, 40.744095]},"type":"Feature","properties": {"phone":"(212) 251-0052","address":"460 THIRD AVE., NEW YORK,NY 10016","id":"28785","zip":"10016","name":"NAMDOR INC."}}, {"geometry": {"type":"Point","coordinates":[-73.937278, 40.804517]},"type":"Feature","properties": {"phone":"(212) 722-9156","address":"160 EAST 125TH STREET, NEW YORK,NY 10035","id":"23710","zip":"10035","name":"PATHMARK STORES, INC."}}, {"geometry": {"type":"Point","coordinates":[-73.928846, 40.860144]},"type":"Feature","properties": {"phone":"(212) 304-3949","address":"66 NAGLE AVENUE, NEW YORK,NY 10040","id":"31103","zip":"10040","name":"SSS PHARMACY INC."}}, {"geometry": {"type":"Point","coordinates":[-73.920294, 40.866508]},"type":"Feature","properties": {"phone":"(212) 544-0020","address":"567 WEST 207TH ST., NEW YORK,NY 10034","id":"31066","zip":"10034","name":"PAYLESS RX PHARMACY, INC."}}, {"geometry": {"type":"Point","coordinates":[-73.969603, 40.757081]},"type":"Feature","properties": {"phone":"(212) 838-3606","address":"875 THIRD AVE, 2ND FLOOR M105, NEW YORK,NY 10022","id":"28337","zip":"10022","name":"NEW YORK RX, INC."}}, {"geometry": {"type":"Point","coordinates":[-73.996289, 40.718911]},"type":"Feature","properties": {"phone":"(212) 343-1252","address":"207 GRAND ST., NEW YORK,NY 10013","id":"25584","zip":"10013","name":"PHARMAX INC."}}, {"geometry": {"type":"Point","coordinates":[-74.01108, 40.708156]},"type":"Feature","properties": {"phone":"(917) 502-9843","address":"100 BROADWAY, NEW YORK,NY 10005","id":"31315","zip":"10005","name":"DUANE READE"}}, {"geometry": {"type":"Point","coordinates":[-73.960454, 40.772583]},"type":"Feature","properties": {"phone":"(212) 737-1280","address":"1065 LEXINGTON AVE., NEW YORK,NY 10021","id":"17370","zip":"10021","name":"WINMARK DRUG, LTD."}}, {"geometry": {"type":"Point","coordinates":[-73.920862, 40.867983]},"type":"Feature","properties": {"phone":"(212) 569-1230","address":"4953 BROADWAY, NEW YORK,NY 10034","id":"28803","zip":"10034","name":"MANNYRX, INC."}}, {"geometry": {"type":"Point","coordinates":[-73.964932, 40.773032]},"type":"Feature","properties": {"phone":"(212) 744-5050","address":"926 MADISON AVE., NEW YORK,NY 10021","id":"23498","zip":"10021","name":"CLYDE CHEMISTS, LTD."}}, {"geometry": {"type":"Point","coordinates":[-73.962482, 40.758374]},"type":"Feature","properties": {"phone":"(212) 755-4244","address":"405 EAST 57TH STREET, NEW YORK,NY 10022","id":"15678","zip":"10022","name":"POLLOCK-BAILEY APOTHECARY, LTD."}}, {"geometry": {"type":"Point","coordinates":[-74.001323, 40.726599]},"type":"Feature","properties": {"phone":"(212) 598-9790","address":"137 THOMPSON ST., NEW YORK,NY 10012","id":"22226","zip":"10012","name":"THOMPSON CHEMISTS INC."}}, {"geometry": {"type":"Point","coordinates":[-73.999708, 40.717057]},"type":"Feature","properties": {"phone":"(212) 219-8668","address":"92 BAXTER ST., B2, NEW YORK,NY 10013","id":"21451","zip":"10013","name":"METROPHARM INC."}}, {"geometry": {"type":"Point","coordinates":[-73.970098, 40.75744]},"type":"Feature","properties": {"phone":"(212) 759-9412","address":"866 THIRD AVE., NEW YORK,NY 10022","id":"22383","zip":"10022","name":"DUANE READE"}}, {"geometry": {"type":"Point","coordinates":[-73.987011, 40.713968]},"type":"Feature","properties": {"phone":"(212) 571-2888","address":"204 CLINTON ST., NEW YORK,NY 10002","id":"23258","zip":"10002","name":"MEDILANE PHARMACY CORP."}}, {"geometry": {"type":"Point","coordinates":[-73.937332, 40.84118]},"type":"Feature","properties": {"phone":"(212) 543-2937","address":"85 AUDUBON AVENUE, NEW YORK,NY 10032","id":"26548","zip":"10032","name":"AUDUBON PHARMACY INC."}}, {"geometry": {"type":"Point","coordinates":[-74.003461, 40.717828]},"type":"Feature","properties": {"phone":"(212) 925-4888","address":"373 BROADWAY, NEW YORK,NY 10013","id":"22384","zip":"10013","name":"BROADWAY DOWNTOWN PHARMACY, INC."}}, {"geometry": {"type":"Point","coordinates":[-73.942507, 40.795]},"type":"Feature","properties": {"phone":"(212) 369-4018","address":"2022 THIRD AVE., NEW YORK,NY 10029","id":"12457","zip":"10029","name":"BUENA VISTA PHARMACY INC."}}, {"geometry": {"type":"Point","coordinates":[-73.938561, 40.816859]},"type":"Feature","properties": {"phone":"(212) 368-3777","address":"586 LENOX AVENUE, NEW YORK,NY 10037","id":"24680","zip":"10037","name":"PRANAYA PHARMACY, INC."}}, {"geometry": {"type":"Point","coordinates":[-73.946481, 40.781223]},"type":"Feature","properties": {"phone":"","address":"1789 1ST AVE., NEW YORK,NY 10128,","id":"29549","zip":"10128","name":"NUCARE PHARMACY INC."}}, {"geometry": {"type":"Point","coordinates":[-73.978908, 40.782714]},"type":"Feature","properties": {"phone":"(212) 579-7246","address":"380 AMSTERDAM AVE., NEW YORK,NY 10024","id":"23387","zip":"10024","name":"DUANE READE"}}, {"geometry": {"type":"Point","coordinates":[-73.939782, 40.821788]},"type":"Feature","properties": {"phone":"(347) 952-4747","address":"210 WEST 145TH STREET, NEW YORK,NY 10030","id":"31367","zip":"10030","name":"JEFFERSON PHARMA LLC"}}, {"geometry": {"type":"Point","coordinates":[-73.941858, 40.838633]},"type":"Feature","properties": {"phone":"(212) 928-6342","address":"3921 BROADWAY, NEW YORK,NY 10032","id":"24760","zip":"10032","name":"S &amp; J PHARMACY CORP."}}, {"geometry": {"type":"Point","coordinates":[-73.997101, 40.714762]},"type":"Feature","properties": {"phone":"(212) 240-2312","address":"22 BOWERY, NEW YORK,NY 10013","id":"26165","zip":"10013","name":"PANCARE PHARMACY, INC."}}, {"geometry": {"type":"Point","coordinates":[-74.013082, 40.706096]},"type":"Feature","properties": {"phone":"(212) 425-8460","address":"37 BROADWAY, NEW YORK,NY 10006","id":"18608","zip":"10006","name":"DUANE READE"}}, {"geometry": {"type":"Point","coordinates":[-74.007514, 40.712916]},"type":"Feature","properties": {"phone":"(212) 571-4511","address":"250 BROADWAY, NEW YORK,NY 10007","id":"18609","zip":"10007","name":"DUANE READE"}}, {"geometry": {"type":"Point","coordinates":[-73.968677, 40.791752]},"type":"Feature","properties": {"phone":"(212) 280-3085","address":"775 COLUMBUS AVE., NEW YORK,NY 10025","id":"25336","zip":"10025","name":"DUANE READE"}}, {"geometry": {"type":"Point","coordinates":[-73.941872, 40.822348]},"type":"Feature","properties": {"phone":"(212) 283-6228","address":"2718 8TH AVE., NEW YORK,NY 10030","id":"18218","zip":"10030","name":"AJANTA PHARMACY INC."}}, {"geometry": {"type":"Point","coordinates":[-73.955154, 40.769362]},"type":"Feature","properties": {"phone":"(212) 628-1110","address":"1235 1ST AVE, NEW YORK,NY 10021","id":"27558","zip":"10021","name":"PRO + LIFE APOTHECARY CORP."}}, {"geometry": {"type":"Point","coordinates":[-73.988312, 40.747856]},"type":"Feature","properties": {"phone":"(212) 684-0090","address":"1257 BROADWAY, NEW YORK,NY 10001","id":"15725","zip":"10001","name":"RAPHAEL DRUG AND HEALTH, LTD."}}, {"geometry": {"type":"Point","coordinates":[-73.995847, 40.726337]},"type":"Feature","properties": {"phone":"(212) 979-2142","address":"636 BROADWAY, NEW YORK,NY 10012","id":"26862","zip":"10012","name":"DUANE READE"}}, {"geometry": {"type":"Point","coordinates":[-73.980503, 40.774538]},"type":"Feature","properties": {"phone":"(212) 877-7340","address":"171 COLUMBUS AVE., NEW YORK,NY 10023","id":"22429","zip":"10023","name":"THOMAS DRUGS, INC."}}, {"geometry": {"type":"Point","coordinates":[-73.96307, 40.767842]},"type":"Feature","properties": {"phone":"(212) 794-7200","address":"931 LEXINGTON AVE., NEW YORK,NY 10021","id":"21108","zip":"10021","name":"METRO DRUGS 3RD AVE. CORP."}}, {"geometry": {"type":"Point","coordinates":[-73.933405, 40.85515]},"type":"Feature","properties": {"phone":"(212) 543-2333","address":"4407 BROADWAY, NEW YORK,NY 10040","id":"29095","zip":"10040","name":"MSSC PHARMACY INC."}}, {"geometry": {"type":"Point","coordinates":[-73.976952, 40.779698]},"type":"Feature","properties": {"phone":"(212) 580-2017","address":"325 COLUMBUS AVE, NEW YORK,NY 10023","id":"29093","zip":"10023","name":"DUANE READE"}}, {"geometry": {"type":"Point","coordinates":[-73.938274, 40.845714]},"type":"Feature","properties": {"phone":"(212) 795-3894","address":"4126 BROADWAY, NEW YORK,NY 10033","id":"27845","zip":"10033","name":"CORAL PHARMACY INC"}}, {"geometry": {"type":"Point","coordinates":[-73.979388, 40.740335]},"type":"Feature","properties": {"phone":"(212) 326-9030","address":"465 2ND AVENUE, NEW YORK,NY 10016","id":"23793","zip":"10016","name":"DUANE READE"}}, {"geometry": {"type":"Point","coordinates":[-73.979379, 40.73693]},"type":"Feature","properties": {"phone":"(212) 505-1555","address":"338 EAST 23RD STREET, NEW YORK,NY 10010","id":"23810","zip":"10010","name":"CVS ALBANY, L.L.C."}}, {"geometry": {"type":"Point","coordinates":[-73.942435, 40.838179]},"type":"Feature","properties": {"phone":"(212) 923-7617","address":"3901 BROADWAY, NEW YORK,NY 10032","id":"9930","zip":"10032","name":"NEWMAN-LYMAN DRUG CO., INC."}}, {"geometry": {"type":"Point","coordinates":[-73.941666, 40.798597]},"type":"Feature","properties": {"phone":"(212) 348-2117","address":"1870 LEXINGTON AVE., NEW YORK,NY 10029","id":"17020","zip":"10029","name":"RAYSOL DRUGS INC."}}, {"geometry": {"type":"Point","coordinates":[-73.956898, 40.802013]},"type":"Feature","properties": {"phone":"","address":"2074 8TH AVENUE, NEW YORK,NY 10026,","id":"26336","zip":"10026","name":"DRUG SHOPPE LLC"}}, {"geometry": {"type":"Point","coordinates":[-74.008932, 40.709884]},"type":"Feature","properties": {"phone":"(212) 619-7181","address":"17 JOHN ST, NEW YORK,NY 10038","id":"29253","zip":"10038","name":"DUANE READE"}}, {"geometry": {"type":"Point","coordinates":[-73.939201, 40.842876]},"type":"Feature","properties": {"phone":"(212) 928-2550","address":"4046 BROADWAY, NEW YORK,NY 10032","id":"24613","zip":"10032","name":"RITE AID OF NEW YORK, INC."}}, {"geometry": {"type":"Point","coordinates":[-73.941886, 40.837445]},"type":"Feature","properties": {"phone":"(212) 568-6878","address":"3890 BROADWAY, NEW YORK,NY 10032","id":"29488","zip":"10032","name":"LA HISPANA ON BROADWAY PHARMACY, LLC"}}, {"geometry": {"type":"Point","coordinates":[-73.998572, 40.715453]},"type":"Feature","properties": {"phone":"(212) 962-3388","address":"48 MOTT ST., NEW YORK,NY 10013","id":"30860","zip":"10013","name":"E CARE PHARMACY CORP"}}, {"geometry": {"type":"Point","coordinates":[-73.999638, 40.747872]},"type":"Feature","properties": {"phone":"(212) 462-2525","address":"250 NINTH AVE., NEW YORK,NY 10001","id":"29957","zip":"10001","name":"NUCARE PHARMACY WEST, LLC"}}, {"geometry": {"type":"Point","coordinates":[-73.978126, 40.729212]},"type":"Feature","properties": {"phone":"(212) 505-1788","address":"227 AVENUE B, NEW YORK,NY 10009","id":"24945","zip":"10009","name":"K &amp; R UNITED CORP."}}, {"geometry": {"type":"Point","coordinates":[-73.995287, 40.713548]},"type":"Feature","properties": {"phone":"(212) 608-8889","address":"59 EAST BROADWAY, NEW YORK,NY 10002","id":"30864","zip":"10002","name":"METROCARE RX , INC."}}, {"geometry": {"type":"Point","coordinates":[-73.991717, 40.743968]},"type":"Feature","properties": {"phone":"(646) 336-8388","address":"750 AVENUE OF THE, AMERICAS, NEW YORK,NY 10010","id":"24941","zip":"10010","name":"CVS ALBANY, L.L.C."}}, {"geometry": {"type":"Point","coordinates":[-73.995425, 40.731976]},"type":"Feature","properties": {"phone":"(212) 982-7325","address":"13 EAST 8TH STREET, NEW YORK,NY 10003","id":"24340","zip":"10003","name":"METRO DRUGS 8TH ST. CORP."}}, {"geometry": {"type":"Point","coordinates":[-73.939468, 40.838784]},"type":"Feature","properties": {"phone":"(212) 543-1554","address":"1-7 AUDUBON AVE., NEW YORK,NY 10032","id":"25051","zip":"10032","name":"C &amp; C DRUG, INC."}}, {"geometry": {"type":"Point","coordinates":[-73.955485, 40.767903]},"type":"Feature","properties": {"phone":"(212) 879-9050","address":"1344 FIRST AVE., NEW YORK,NY 10021","id":"25026","zip":"10021","name":"GRISTEDES FOODS, INC."}}, {"geometry": {"type":"Point","coordinates":[-73.943212, 40.836776]},"type":"Feature","properties": {"phone":"(212) 795-4909","address":"3865 BROADWAY, NEW YORK,NY 10032","id":"15799","zip":"10032","name":"JMC PHARMACY, INC."}}, {"geometry": {"type":"Point","coordinates":[-73.963386, 40.798251]},"type":"Feature","properties": {"phone":"(212) 222-6388","address":"909 COLUMBUS AVE, NEW YORK,NY 10025","id":"29000","zip":"10025","name":"909 COLUMBUS RX CORP."}}, {"geometry": {"type":"Point","coordinates":[-73.932258, 40.84858]},"type":"Feature","properties": {"phone":"(212) 740-3737","address":"522 WEST 181ST STREET, NEW YORK,NY 10033","id":"31700","zip":"10033","name":"HEIDI PHARMACY INC."}}, {"geometry": {"type":"Point","coordinates":[-73.950609, 40.786497]},"type":"Feature","properties": {"phone":"(212) 289-3846","address":"1500 LEXINGTON AVE., NEW YORK,NY 10029","id":"26200","zip":"10029","name":"CVS ALBANY, L.L.C."}}, {"geometry": {"type":"Point","coordinates":[-73.954452, 40.769957]},"type":"Feature","properties": {"phone":"(212) 517-7500","address":"1449 FIRST AVE., NEW YORK,NY 10021","id":"17952","zip":"10021","name":"JED INC."}}, {"geometry": {"type":"Point","coordinates":[-73.97332, 40.795455]},"type":"Feature","properties": {"phone":"(212) 491-4911","address":"1473 AMSTERDAM AVE, STORE 1, NEW YORK,NY 10027","id":"27564","zip":"10027","name":"133RD STREET PHARMACY INC."}}, {"geometry": {"type":"Point","coordinates":[-73.972601, 40.760708]},"type":"Feature","properties": {"phone":"(212) 750-9095","address":"55 E. 55TH ST., NEW YORK,NY 10022","id":"19590","zip":"10022","name":"DUANE READE"}}, {"geometry": {"type":"Point","coordinates":[-73.945036, 40.795163]},"type":"Feature","properties": {"phone":"(212) 996-0055","address":"127 EAST 110TH STREET, NEW YORK,NY 10029","id":"29790","zip":"10029","name":"ROYAL CARE PHARMACY, INC."}}, {"geometry": {"type":"Point","coordinates":[-73.937545, 40.844433]},"type":"Feature","properties": {"phone":"(212) 781-4214","address":"1265 ST. NICHOLAS AVE., NEW YORK,NY 10033","id":"30032","zip":"10033","name":"ETHICAL DRUG INC."}}, {"geometry": {"type":"Point","coordinates":[-73.978543, 40.746168]},"type":"Feature","properties": {"phone":"(212) 683-3042","address":"155 E. 34TH ST., NEW YORK,NY 10016","id":"23531","zip":"10016","name":"DUANE READE"}}, {"geometry": {"type":"Point","coordinates":[-73.589429, 40.78407]},"type":"Feature","properties": {"phone":"(212) 962-4900","address":"99 NASSAU ST., STORE 111, NEW YORK,NY 10038","id":"31138","zip":"10038","name":"L &amp; V PHARMACY INC."}}, {"geometry": {"type":"Point","coordinates":[-74.004568, 40.707309]},"type":"Feature","properties": {"phone":"(212) 385-9353","address":"200 WATER ST., NEW YORK,NY 10038","id":"23535","zip":"10038","name":"DUANE READE"}}, {"geometry": {"type":"Point","coordinates":[-73.940907, 40.788506]},"type":"Feature","properties": {"phone":"(212) 987-0700","address":"2021 1ST AVENUE, NEW YORK,NY 10029","id":"31135","zip":"10029","name":"NEW YORK HEALTH FIRST PHARMACY INC."}}, {"geometry": {"type":"Point","coordinates":[-73.91858, 40.868324]},"type":"Feature","properties": {"phone":"(212) 567-3137","address":"4996 BROADWAY, NEW YORK,NY 10034","id":"20350","zip":"10034","name":"ISHAM BROADWAY PHARMACY INC."}}, {"geometry": {"type":"Point","coordinates":[-73.980921, 40.734037]},"type":"Feature","properties": {"phone":"(212) 228-7900","address":"313 1ST AVE., NEW YORK,NY 10003","id":"31526","zip":"10003","name":"NATURES FIRST PHARMACY CORP."}}, {"geometry": {"type":"Point","coordinates":[-73.980905, 40.737857]},"type":"Feature","properties": {"phone":"(347) 273-2215","address":"300 EAST 23RD ST., NEW YORK,NY 10010","id":"31524","zip":"10010","name":"DUANE READE"}}, {"geometry": {"type":"Point","coordinates":[-73.976604, 40.723217]},"type":"Feature","properties": {"phone":"(212) 228-0400","address":"93 AVE. D, NEW YORK,NY 10009","id":"18037","zip":"10009","name":"EAST DRIVE PHARMACY, INC."}}, {"geometry": {"type":"Point","coordinates":[-73.93919, 40.790865]},"type":"Feature","properties": {"phone":"(212) 423-2910","address":"2101 FIRST AVENUE, NEW YORK,NY 10029","id":"27621","zip":"10029","name":"ESKAY PHARMACY INC."}}, {"geometry": {"type":"Point","coordinates":[-73.940317, 40.815277]},"type":"Feature","properties": {"phone":"(212) 368-7900","address":"531 LENOX AVE., NEW YORK,NY 10037","id":"30815","zip":"10037","name":"LENOX STAR PHARMACY INC."}}, {"geometry": {"type":"Point","coordinates":[-73.975676, 40.754415]},"type":"Feature","properties": {"phone":"(212) 682-1364","address":"230 PARK AVE., NEW YORK,NY 10169","id":"25246","zip":"10169","name":"DUANE READE"}}, {"geometry": {"type":"Point","coordinates":[-73.997997, 40.71699]},"type":"Feature","properties": {"phone":"(212) 925-7698","address":"185 CANAL ST., NEW YORK,NY 10013","id":"21143","zip":"10013","name":"BUY-RITE CORP."}}, {"geometry": {"type":"Point","coordinates":[-73.999363, 40.717807]},"type":"Feature","properties": {"phone":"(212) 925-6088","address":"221 CANAL STREET, 2ND FLOOR, NEW YORK,NY 10013","id":"29676","zip":"10013","name":"FAMILY CHOICE PHARMACY CORP."}}, {"geometry": {"type":"Point","coordinates":[-73.94843, 40.803302]},"type":"Feature","properties": {"phone":"(212) 722-1550","address":"160 LENOX AVE., NEW YORK,NY 10026","id":"25096","zip":"10026","name":"MALCOLM PHARMACY,INC."}}, {"geometry": {"type":"Point","coordinates":[-73.937545, 40.844433]},"type":"Feature","properties": {"phone":"(212) 781-4214","address":"1265 ST. NICHOLAS AVE., NEW YORK,NY 10033","id":"25095","zip":"10033","name":"DBN DRUGS INC."}}, {"geometry": {"type":"Point","coordinates":[-73.9949, 40.731658]},"type":"Feature","properties": {"phone":"(212) 260-3052","address":"20 UNIVERSITY PL., NEW YORK,NY 10003","id":"29670","zip":"10003","name":"CVS ALBANY, L.L.C."}}, {"geometry": {"type":"Point","coordinates":[-73.98303, 40.730179]},"type":"Feature","properties": {"phone":"(212) 253-8686","address":"206 FIRST AVE., NEW YORK,NY 10009","id":"24531","zip":"10009","name":"NY FIRST AVE. CORPORATION"}}, {"geometry": {"type":"Point","coordinates":[-73.997604, 40.71663]},"type":"Feature","properties": {"phone":"(212) 608-0301","address":"50 BOWERY, NEW YORK,NY 10013","id":"25098","zip":"10013","name":"DUANE READE"}}, {"geometry": {"type":"Point","coordinates":[-73.989584, 40.763096]},"type":"Feature","properties": {"phone":"(212) 246-0168","address":"721 9TH AVE., NEW YORK,NY 10019","id":"24536","zip":"10019","name":"DUANE READE"}}, {"geometry": {"type":"Point","coordinates":[-73.954747, 40.773452]},"type":"Feature","properties": {"phone":"(646) 422-1023","address":"1524 2ND. AVE., NEW YORK,NY 10021","id":"24534","zip":"10021","name":"DUANE READE"}}, {"geometry": {"type":"Point","coordinates":[-73.983851, 40.713022]},"type":"Feature","properties": {"phone":"(212) 385-6775","address":"36 GOUVERNEUR ST., NEW YORK,NY 10002","id":"24861","zip":"10002","name":"MADISON DRUGS INC."}}, {"geometry": {"type":"Point","coordinates":[-73.975514, 40.751848]},"type":"Feature","properties": {"phone":"(212) 808-4743","address":"405 LEXINGTON AVE., NEW YORK,NY 10017","id":"21814","zip":"10017","name":"DUANE READE"}}, {"geometry": {"type":"Point","coordinates":[-73.962529, 40.765099]},"type":"Feature","properties": {"phone":"(212) 838-0195","address":"1111 THIRD AVE., NEW YORK,NY 10065","id":"30722","zip":"10065","name":"DUANE READE"}}, {"geometry": {"type":"Point","coordinates":[-73.934901, 40.848262]},"type":"Feature","properties": {"phone":"(212) 928-7263","address":"1381 ST. NICHOLAS AVE., NEW YORK,NY 10033","id":"17199","zip":"10033","name":"H &amp; J PHARMACEUTICAL INC."}}, {"geometry": {"type":"Point","coordinates":[-73.953401, 40.803865]},"type":"Feature","properties": {"phone":"(212) 665-8880","address":"215 WEST 116TH STREET, NEW YORK,NY 10026","id":"30720","zip":"10026","name":"SY PHARMACY INC."}}, {"geometry": {"type":"Point","coordinates":[-73.988429, 40.769453]},"type":"Feature","properties": {"phone":"(212) 956-9111","address":"881 TENTH AVE, NEW YORK,NY 10019","id":"29176","zip":"10019","name":"BOWEN PHARMACY, INC."}}, {"geometry": {"type":"Point","coordinates":[-73.935684, 40.846349]},"type":"Feature","properties": {"phone":"(212) 568-1383","address":"1328 ST NICHOLAS AVE, NEW YORK,NY 10033","id":"29079","zip":"10033","name":"JAY PHARMACY CORP."}}, {"geometry": {"type":"Point","coordinates":[-73.95349, 40.822513]},"type":"Feature","properties": {"phone":"(212) 283-6623","address":"3415 BROADWAY, NEW YORK,NY 10031","id":"15978","zip":"10031","name":"139 PHARMACY INC."}}, {"geometry": {"type":"Point","coordinates":[-73.999275, 40.717036]},"type":"Feature","properties": {"phone":"(212) 513-1344","address":"216B CANAL ST., NEW YORK,NY 10013","id":"21547","zip":"10013","name":"PHARMACO, INC."}}, {"geometry": {"type":"Point","coordinates":[-73.921922, 40.867071]},"type":"Feature","properties": {"phone":"(212) 569-2512","address":"4910 BROADWAY, NEW YORK,NY 10034","id":"22619","zip":"10034","name":"RITE AID OF NEW YORK, INC."}}, {"geometry": {"type":"Point","coordinates":[-73.982082, 40.746632]},"type":"Feature","properties": {"phone":"(212) 683-5532","address":"4 PARK AVE., NEW YORK,NY 10016","id":"20144","zip":"10016","name":"DUANE READE"}}, {"geometry": {"type":"Point","coordinates":[-73.968846, 40.798882]},"type":"Feature","properties": {"phone":"(212) 865-5360","address":"2683 BROADWAY, NEW YORK,NY 10025","id":"23746","zip":"10025","name":"DUANE READE"}}, {"geometry": {"type":"Point","coordinates":[-73.937388, 40.80177]},"type":"Feature","properties": {"phone":"(212) 534-1937","address":"2240 THIRD AVE., NEW YORK,NY 10035","id":"22343","zip":"10035","name":"AVN PHARMACY INC."}}, {"geometry": {"type":"Point","coordinates":[-73.996699, 40.713627]},"type":"Feature","properties": {"phone":"(212) 334-0086","address":"28 EAST BROADWAY, NEW YORK,NY 10002","id":"20781","zip":"10002","name":"BEST CARE PHARMACY CORP."}}, {"geometry": {"type":"Point","coordinates":[-73.977285, 40.74744]},"type":"Feature","properties": {"phone":"(212) 447-6111","address":"550 THIRD AVE., NEW YORK,NY 10016","id":"21243","zip":"10016","name":"THIRD AVE. PHARMACY &amp; SURGICALS, INC."}}, {"geometry": {"type":"Point","coordinates":[-73.988784, 40.71896]},"type":"Feature","properties": {"phone":"(212) 253-0270","address":"100 DELANCY ST., NEW YORK,NY 10002","id":"23628","zip":"10002","name":"DUANE READE"}}, {"geometry": {"type":"Point","coordinates":[-73.99664, 40.747105]},"type":"Feature","properties": {"phone":"(212) 255-5025","address":"322 8TH AVE., NEW YORK,NY 10001","id":"23629","zip":"10001","name":"DUANE READE"}}, {"geometry": {"type":"Point","coordinates":[-73.962801, 40.765784]},"type":"Feature","properties": {"phone":"(212) 717-7797","address":"207 EAST 66TH STREET, NEW YORK,NY 10021","id":"26501","zip":"10021","name":"BBRX1 LLC"}}, {"geometry": {"type":"Point","coordinates":[-74.002009, 40.745599]},"type":"Feature","properties": {"phone":"(212) 727-9620","address":"188 9TH AVE., NEW YORK,NY 10011","id":"22823","zip":"10011","name":"RITE AID OF NEW YORK, INC."}}, {"geometry": {"type":"Point","coordinates":[-73.934449, 40.83693]},"type":"Feature","properties": {"phone":"(212) 283-7200","address":"159-12 HARLEM RIVER DRIVE, NEW YORK,NY 10039","id":"26505","zip":"10039","name":"SVR INC."}}, {"geometry": {"type":"Point","coordinates":[-73.994023, 40.732528]},"type":"Feature","properties": {"phone":"(212) 473-4166","address":"50 UNIVERSITY PLACE, NEW YORK,NY 10003","id":"22821","zip":"10003","name":"NKS PHARMACY INC."}}, {"geometry": {"type":"Point","coordinates":[-73.957459, 40.81188]},"type":"Feature","properties": {"phone":"(212) 665-8966","address":"1290 AMSTERDAM AVE., NEW YORK,NY 10027","id":"23588","zip":"10027","name":"DUANE READE"}}, {"geometry": {"type":"Point","coordinates":[-73.939299, 40.842096]},"type":"Feature","properties": {"phone":"(212) 923-6000","address":"4027 BROADWAY, NEW YORK,NY 10032","id":"27696","zip":"10032","name":"UPTOWN PHARMACY &amp; SURGICALS INC."}}, {"geometry": {"type":"Point","coordinates":[-73.964924, 40.802065]},"type":"Feature","properties": {"phone":"(212) 866-4232","address":"976-980 AMSTERDAM AVE, NEW YORK,NY 10025","id":"24405","zip":"10025","name":"DUANE READE"}}, {"geometry": {"type":"Point","coordinates":[-73.955657, 40.767801]},"type":"Feature","properties": {"phone":"(212) 535-9816","address":"399 E. 72ND STREET, NEW YORK,NY 10021","id":"24404","zip":"10021","name":"DUANE READE"}}, {"geometry": {"type":"Point","coordinates":[-73.970596, 40.751947]},"type":"Feature","properties": {"phone":"(212) 983-1810","address":"852 2ND. AVE., NEW YORK,NY 10017","id":"24403","zip":"10017","name":"DUANE READE"}}, {"geometry": {"type":"Point","coordinates":[-73.995862, 40.718726]},"type":"Feature","properties": {"phone":"(212) 226-8832","address":"219 GRAND ST., NEW YORK,NY 10013","id":"30883","zip":"10013","name":"A.M. PHARMACY II INC."}}, {"geometry": {"type":"Point","coordinates":[-73.998196, 40.716847]},"type":"Feature","properties": {"phone":"(212) 608-1668","address":"196 CANAL STREET, NEW YORK,NY 10013","id":"27630","zip":"10013","name":"CANAL PHARMACY INC."}}, {"geometry": {"type":"Point","coordinates":[-73.974703, 40.758816]},"type":"Feature","properties": {"phone":"(212) 426-7151","address":"2355 2ND AVENUE, NEW YORK,NY 10022","id":"28194","zip":"10022","name":"2355 2ND AVE CORP."}}, {"geometry": {"type":"Point","coordinates":[-73.943368, 40.79085]},"type":"Feature","properties": {"phone":"(212) 534-7700","address":"234 EAST 106TH ST, NEW YORK,NY 10029","id":"27755","zip":"10029","name":"MAXWELL PHARMACY INC"}}, {"geometry": {"type":"Point","coordinates":[-73.950009, 40.827377]},"type":"Feature","properties": {"phone":"","address":"3569 BROADWAY, NEW YORK,NY 10031,","id":"30746","zip":"10031","name":"HLP PHARMCY, INC."}}, {"geometry": {"type":"Point","coordinates":[-73.927838, 40.862836]},"type":"Feature","properties": {"phone":"(212) 567-5533","address":"39 SHERMAN AVE., NEW YORK,NY 10040","id":"19639","zip":"10040","name":"W &amp; Z DRUGS INC."}}, {"geometry": {"type":"Point","coordinates":[-73.925563, 40.862247]},"type":"Feature","properties": {"phone":"(212) 569-0400","address":"126 DYCKMAN ST., NEW YORK,NY 10040","id":"21397","zip":"10040","name":"EXPRESS DRUGS, INC."}}, {"geometry": {"type":"Point","coordinates":[-73.972541, 40.791399]},"type":"Feature","properties": {"phone":"(212) 873-8838","address":"652 AMSTERDAM AVE., NEW YORK,NY 10025","id":"25831","zip":"10025","name":"PETER'S PHARMACY AND VITAMINS INC."}}, {"geometry": {"type":"Point","coordinates":[-73.934539, 40.801683]},"type":"Feature","properties": {"phone":"(212) 289-2000","address":"2403 2ND AVE., NEW YORK,NY 10035","id":"28756","zip":"10035","name":"TAINO STAR PHARMACY, INC."}}, {"geometry": {"type":"Point","coordinates":[-73.979592, 40.751239]},"type":"Feature","properties": {"phone":"(212) 684-5125","address":"30 E. 40TH ST., NEW YORK,NY 10016","id":"28755","zip":"10016","name":"COMMUNICARE, INC."}}, {"geometry": {"type":"Point","coordinates":[-73.997272, 40.716804]},"type":"Feature","properties": {"phone":"(212) 343-1517","address":"173 CANAL ST., NEW YORK,NY 10013","id":"29441","zip":"10013","name":"TYKA HOLDINGS INC."}}, {"geometry": {"type":"Point","coordinates":[-73.975372, 40.751021]},"type":"Feature","properties": {"phone":"(212) 661-8139","address":"150 EAST 42ND ST, NEW YORK,NY 10017","id":"28610","zip":"10017","name":"CVS ALBANY, LLC."}}, {"geometry": {"type":"Point","coordinates":[-73.996869, 40.718623]},"type":"Feature","properties": {"phone":"(212) 267-8882","address":"137 MOTT STREET, NEW YORK,NY 10013","id":"27038","zip":"10013","name":"HEALTH CITY PHARMACY CORP."}}, {"geometry": {"type":"Point","coordinates":[-73.956876, 40.783545]},"type":"Feature","properties": {"phone":"(212) 289-9168","address":"1260 MADISON AVE., NEW YORK,NY 10128","id":"20550","zip":"10128","name":"CHRISTOPHER A. BASSOLINO PHARMACY CORP."}}]}
